"city","city_ascii","state_id","state_name","county_fips","county_name","lat","lng","population","density","source","military","incorporated","timezone","ranking","zips","id"
"Benton Ridge","Benton Ridge","OH","Ohio","39063","Hancock","41.0043","-83.7920","480","379.1","shape","FALSE","TRUE","America/New_York","3","45816 45840","1840011739"
"Bonfield","Bonfield","IL","Illinois","17091","Kankakee","41.1450","-88.0542","480","376.9","shape","FALSE","TRUE","America/Chicago","3","60913","1840011691"
"Jefferson City","Jefferson City","MT","Montana","30043","Jefferson","46.3779","-112.0305","480","8.0","shape","FALSE","FALSE","America/Denver","3","59638","1840017388"
"Woodland","Woodland","MI","Michigan","26015","Barry","42.7268","-85.1344","479","218.1","shape","FALSE","TRUE","America/Detroit","3","48897","1840011091"
"Millingport","Millingport","NC","North Carolina","37167","Stanly","35.3763","-80.3113","479","32.6","shape","FALSE","FALSE","America/New_York","3","28127 28001","1840024952"
"Park Ridge","Park Ridge","WI","Wisconsin","55097","Portage","44.5200","-89.5463","479","818.5","shape","FALSE","TRUE","America/Chicago","3","54481","1840002327"
"Green Isle","Green Isle","MN","Minnesota","27143","Sibley","44.6804","-94.0052","479","182.2","shape","FALSE","TRUE","America/Chicago","3","55338","1840007867"
"Harvey Cedars","Harvey Cedars","NJ","New Jersey","34029","Ocean","39.6995","-74.1426","479","329.5","shape","FALSE","TRUE","America/New_York","3","08008","1840003757"
"Solomon","Solomon","AZ","Arizona","04009","Graham","32.8138","-109.6290","479","528.1","shape","FALSE","FALSE","America/Phoenix","3","85551","1840022961"
"Fowler","Fowler","KS","Kansas","20119","Meade","37.3829","-100.1957","479","390.2","shape","FALSE","TRUE","America/Chicago","3","67844","1840008750"
"Riverview","Riverview","VA","Virginia","51195","Wise","36.9326","-82.4846","479","324.3","shape","FALSE","FALSE","America/New_York","3","24230","1840037353"
"Southampton Meadows","Southampton Meadows","VA","Virginia","51175","Southampton","36.5916","-76.9293","479","468.3","shape","FALSE","TRUE","America/New_York","3","23851","1840043157"
"Cygnet","Cygnet","OH","Ohio","39173","Wood","41.2407","-83.6437","479","440.6","shape","FALSE","TRUE","America/New_York","3","43413","1840011554"
"Lake Arthur Estates","Lake Arthur Estates","PA","Pennsylvania","42019","Butler","40.9616","-80.1483","479","278.9","shape","FALSE","FALSE","America/New_York","3","16051","1840035452"
"West Baden Springs","West Baden Springs","IN","Indiana","18117","Orange","38.5676","-86.6120","479","169.9","shape","FALSE","TRUE","America/Indiana/Indianapolis","3","47469","1840010779"
"Big Springs","Big Springs","NE","Nebraska","31049","Deuel","41.0609","-102.0745","479","417.5","shape","FALSE","TRUE","America/Denver","3","69122","1840011731"
"Naturita","Naturita","CO","Colorado","08085","Montrose","38.2183","-108.5665","479","300.5","shape","FALSE","TRUE","America/Denver","3","81422","1840022504"
"El Portal","El Portal","CA","California","06043","Mariposa","37.6737","-119.7870","479","99.2","shape","FALSE","FALSE","America/Los_Angeles","3","95318","1840024752"
"West College Corner","West College Corner","IN","Indiana","18161","Union","39.5694","-84.8190","479","677.7","shape","FALSE","TRUE","America/Indiana/Indianapolis","3","47003","1840010608"
"Hartford Village","Hartford Village","VT","Vermont","50027","Windsor","43.6638","-72.3364","479","158.1","shape","FALSE","FALSE","America/New_York","4","05001 05047","1840152971"
"Bunn","Bunn","NC","North Carolina","37069","Franklin","35.9591","-78.2520","478","342.0","shape","FALSE","TRUE","America/New_York","3","27508","1840015321"
"Dudleyville","Dudleyville","AZ","Arizona","04021","Pinal","32.9127","-110.7345","478","27.5","shape","FALSE","FALSE","America/Phoenix","3","85192","1840019358"
"Louin","Louin","MS","Mississippi","28061","Jasper","32.0722","-89.2627","478","30.4","shape","FALSE","TRUE","America/Chicago","3","39338","1840017035"
"Darlington","Darlington","MD","Maryland","24025","Harford","39.6425","-76.2035","478","176.6","shape","FALSE","FALSE","America/New_York","3","21034","1840026621"
"Binger","Binger","OK","Oklahoma","40015","Caddo","35.3097","-98.3430","478","213.9","shape","FALSE","TRUE","America/Chicago","3","73009","1840020435"
"Crawfordsville","Crawfordsville","AR","Arkansas","05035","Crittenden","35.2267","-90.3241","478","330.2","shape","FALSE","TRUE","America/Chicago","3","72327","1840016383"
"Eudora","Eudora","MS","Mississippi","28033","DeSoto","34.8310","-90.1488","478","46.9","shape","FALSE","FALSE","America/Chicago","3","38632 38641","1840074623"
"White","White","SD","South Dakota","46011","Brookings","44.4359","-96.6460","478","211.3","shape","FALSE","TRUE","America/Chicago","3","57276","1840002505"
"New Albin","New Albin","IA","Iowa","19005","Allamakee","43.4970","-91.2878","478","693.8","shape","FALSE","TRUE","America/Chicago","3","52160","1840007977"
"South Van Horn","South Van Horn","AK","Alaska","02090","Fairbanks North Star","64.8091","-147.7854","478","23.5","shape","FALSE","TRUE","America/Anchorage","4","99709 99701","1840075206"
"Wayland","Wayland","MO","Missouri","29045","Clark","40.3963","-91.5755","478","274.4","shape","FALSE","TRUE","America/Chicago","3","63430 63472","1840010402"
"Verona","Verona","MO","Missouri","29109","Lawrence","36.9631","-93.7936","478","212.6","shape","FALSE","TRUE","America/Chicago","3","65769","1840010883"
"Ottertail","Ottertail","MN","Minnesota","27111","Otter Tail","46.4267","-95.5637","478","43.2","shape","FALSE","TRUE","America/Chicago","3","56571","1840008849"
"Echo","Echo","OR","Oregon","41059","Umatilla","45.7431","-119.1917","478","319.3","shape","FALSE","TRUE","America/Los_Angeles","3","97826","1840019913"
"Romney","Romney","IN","Indiana","18157","Tippecanoe","40.2538","-86.8995","477","210.6","shape","FALSE","FALSE","America/Indiana/Indianapolis","4","47981","1840055532"
"Micro","Micro","NC","North Carolina","37101","Johnston","35.5624","-78.2035","477","439.2","shape","FALSE","TRUE","America/New_York","3","27555","1840016289"
"Naplate","Naplate","IL","Illinois","17099","LaSalle","41.3316","-88.8802","477","565.3","shape","FALSE","TRUE","America/Chicago","3","61350","1840011538"
"New Hebron","New Hebron","MS","Mississippi","28077","Lawrence","31.7332","-89.9833","477","275.0","shape","FALSE","TRUE","America/Chicago","3","39140","1840017078"
"Hayes","Hayes","LA","Louisiana","22019","Calcasieu","30.1112","-92.9236","477","66.2","shape","FALSE","FALSE","America/Chicago","3","70646","1840026021"
"Bertha","Bertha","MN","Minnesota","27153","Todd","46.2671","-95.0618","477","169.9","shape","FALSE","TRUE","America/Chicago","3","56437","1840006666"
"Buckley","Buckley","IL","Illinois","17075","Iroquois","40.5973","-88.0378","477","680.3","shape","FALSE","TRUE","America/Chicago","3","60918","1840010337"
"Joiner","Joiner","AR","Arkansas","05093","Mississippi","35.5054","-90.1501","477","299.3","shape","FALSE","TRUE","America/Chicago","3","72350","1840027747"
"De Land","De Land","IL","Illinois","17147","Piatt","40.1218","-88.6435","477","433.9","shape","FALSE","TRUE","America/Chicago","3","61839","1840012322"
"Racine","Racine","MN","Minnesota","27099","Mower","43.7755","-92.4810","477","275.8","shape","FALSE","TRUE","America/Chicago","3","55967","1840009005"
"Brewer","Brewer","MO","Missouri","29157","Perry","37.7836","-89.9180","477","78.7","shape","FALSE","FALSE","America/Chicago","3","63775 63673","1840025715"
"Olney Springs","Olney Springs","CO","Colorado","08025","Crowley","38.1663","-103.9445","477","295.0","shape","FALSE","TRUE","America/Denver","3","81062","1840022510"
"Hopewell","Hopewell","IL","Illinois","17123","Marshall","40.9842","-89.4572","477","162.2","shape","FALSE","TRUE","America/Chicago","3","61565","1840011772"
"Sheppton","Sheppton","PA","Pennsylvania","42107","Schuylkill","40.8964","-76.1196","477","378.6","shape","FALSE","FALSE","America/New_York","3","18248","1840005218"
"Eskridge","Eskridge","KS","Kansas","20197","Wabaunsee","38.8595","-96.1049","477","356.0","shape","FALSE","TRUE","America/Chicago","3","66423","1840008546"
"Florence","Florence","WI","Wisconsin","55037","Florence","45.9266","-88.2463","477","68.1","shape","FALSE","FALSE","America/Chicago","3","54121","1840025288"
"Nectar","Nectar","AL","Alabama","01009","Blount","33.9686","-86.6346","476","101.5","shape","FALSE","TRUE","America/Chicago","3","35079 35049","1840016721"
"Brownville Junction","Brownville Junction","ME","Maine","23021","Piscataquis","45.3488","-69.0555","476","286.5","shape","FALSE","FALSE","America/New_York","3","04414 04415","1840143111"
"Loch Lynn Heights","Loch Lynn Heights","MD","Maryland","24023","Garrett","39.3919","-79.3726","476","438.0","shape","FALSE","TRUE","America/New_York","3","21550","1840005632"
"Liverpool","Liverpool","TX","Texas","48039","Brazoria","29.3018","-95.2746","476","168.0","shape","FALSE","TRUE","America/Chicago","3","77577 77511","1840020975"
"Arnot","Arnot","PA","Pennsylvania","42117","Tioga","41.6624","-77.1223","476","179.1","shape","FALSE","FALSE","America/New_York","3","16911 16912","1840026233"
"Fort Yukon","Fort Yukon","AK","Alaska","02290","Yukon-Koyukuk","66.5806","-145.2415","476","27.3","shape","FALSE","TRUE","America/Anchorage","3","99740","1840023446"
"Chefornak","Chefornak","AK","Alaska","02050","Bethel","60.1550","-164.2550","476","35.1","shape","FALSE","TRUE","America/Nome","3","99561","1840023354"
"Red Level","Red Level","AL","Alabama","01039","Covington","31.4055","-86.6084","476","95.6","shape","FALSE","TRUE","America/Chicago","3","36474","1840018176"
"Huntsville","Huntsville","OH","Ohio","39091","Logan","40.4425","-83.8043","476","379.4","shape","FALSE","TRUE","America/New_York","3","43324","1840012151"
"Ewing","Ewing","VA","Virginia","51105","Lee","36.6381","-83.4291","476","48.8","shape","FALSE","FALSE","America/New_York","3","24248","1840001726"
"Rosholt","Rosholt","WI","Wisconsin","55097","Portage","44.6301","-89.3053","475","174.6","shape","FALSE","TRUE","America/Chicago","3","54473","1840002329"
"Chalmers","Chalmers","IN","Indiana","18181","White","40.6624","-86.8679","475","439.9","shape","FALSE","TRUE","America/Indiana/Indianapolis","3","47929","1840009379"
"Irvona","Irvona","PA","Pennsylvania","42033","Clearfield","40.7737","-78.5501","475","197.3","shape","FALSE","TRUE","America/New_York","3","16656","1840003497"
"Cecil","Cecil","WI","Wisconsin","55115","Shawano","44.8108","-88.4485","475","102.4","shape","FALSE","TRUE","America/Chicago","3","54111","1840002264"
"Cove","Cove","UT","Utah","49005","Cache","41.9683","-111.7794","475","12.5","shape","FALSE","FALSE","America/Denver","3","84320 84333","1840017474"
"Washington Park","Washington Park","NC","North Carolina","37013","Beaufort","35.5328","-77.0316","475","550.2","shape","FALSE","TRUE","America/New_York","3","27889","1840016303"
"Stockton","Stockton","NJ","New Jersey","34019","Hunterdon","40.4061","-74.9758","475","335.7","shape","FALSE","TRUE","America/New_York","3","08559","1840001042"
"Mattoon","Mattoon","WI","Wisconsin","55115","Shawano","45.0046","-89.0411","475","111.9","shape","FALSE","TRUE","America/Chicago","3","54409 54450","1840002265"
"South Royalton","South Royalton","VT","Vermont","50027","Windsor","43.8123","-72.5155","475","165.2","shape","FALSE","FALSE","America/New_York","3","05068","1840025413"
"Wrigley","Wrigley","TN","Tennessee","47081","Hickman","35.8997","-87.3536","475","191.9","shape","FALSE","FALSE","America/Chicago","3","37098","1840024920"
"Thornton","Thornton","TX","Texas","48293","Limestone","31.4111","-96.5738","475","186.6","shape","FALSE","TRUE","America/Chicago","3","76687","1840023117"
"Kismet","Kismet","KS","Kansas","20175","Seward","37.2046","-100.7018","475","474.6","shape","FALSE","TRUE","America/Chicago","3","67859","1840008761"
"Gem Lake","Gem Lake","MN","Minnesota","27123","Ramsey","45.0580","-93.0405","475","175.5","shape","FALSE","TRUE","America/Chicago","3","55110","1840007839"
"Eek","Eek","AK","Alaska","02050","Bethel","60.2164","-162.0331","475","283.1","shape","FALSE","TRUE","America/Nome","3","99578","1840023356"
"Arlington","Arlington","KS","Kansas","20155","Reno","37.8962","-98.1780","475","148.7","shape","FALSE","TRUE","America/Chicago","3","67514","1840007539"
"Ashley","Ashley","MI","Michigan","26057","Gratiot","43.1873","-84.4762","475","273.6","shape","FALSE","TRUE","America/Detroit","3","48806","1840010996"
"Fredonia","Fredonia","KY","Kentucky","21033","Caldwell","37.2085","-88.0603","475","295.3","shape","FALSE","TRUE","America/Chicago","3","42411","1840013251"
"York","York","AZ","Arizona","04011","Greenlee","32.9175","-109.1960","475","89.4","shape","FALSE","FALSE","America/Phoenix","3","85534","1840022951"
"Twin Lakes","Twin Lakes","IA","Iowa","19025","Calhoun","42.4770","-94.6357","475","138.8","shape","FALSE","FALSE","America/Chicago","3","50563 50579","1840029703"
"Eldorado","Eldorado","PA","Pennsylvania","42013","Blair","40.4812","-78.4392","474","252.9","shape","FALSE","FALSE","America/New_York","3","16601","1840141660"
"Good Thunder","Good Thunder","MN","Minnesota","27013","Blue Earth","44.0068","-94.0705","474","292.0","shape","FALSE","TRUE","America/Chicago","3","56037","1840007904"
"Bruceville","Bruceville","IN","Indiana","18083","Knox","38.7580","-87.4154","474","254.3","shape","FALSE","TRUE","America/Indiana/Vincennes","3","47516","1840009730"
"Walton","Walton","NE","Nebraska","31109","Lancaster","40.7960","-96.5658","474","52.8","shape","FALSE","FALSE","America/Chicago","3","68520 68461","1840024239"
"Corning","Corning","OH","Ohio","39127","Perry","39.6016","-82.0876","474","425.5","shape","FALSE","TRUE","America/New_York","3","43730","1840012479"
"New England","New England","GA","Georgia","13083","Dade","34.9079","-85.4880","474","53.9","shape","FALSE","FALSE","America/New_York","3","30757 30752","1840049757"
"Busby","Busby","MT","Montana","30003","Big Horn","45.5281","-106.9752","474","12.8","shape","FALSE","FALSE","America/Denver","3","59016","1840017406"
"The Silos","The Silos","MT","Montana","30007","Broadwater","46.3985","-111.5865","474","35.7","shape","FALSE","TRUE","America/Denver","4","59644","1840039745"
"Mount Charleston","Mount Charleston","NV","Nevada","32003","Clark","36.2625","-115.6138","474","6.2","shape","FALSE","FALSE","America/Los_Angeles","3","89124","1840019025"
"New Village","New Village","NJ","New Jersey","34041","Warren","40.7184","-75.0773","474","192.9","shape","FALSE","FALSE","America/New_York","3","08886","1840033366"
"Danforth","Danforth","ME","Maine","23029","Washington","45.6595","-67.8682","474","73.9","shape","FALSE","FALSE","America/New_York","3","04424","1840152985"
"Rose Creek","Rose Creek","MN","Minnesota","27099","Mower","43.6045","-92.8289","473","372.5","shape","FALSE","TRUE","America/Chicago","3","55970","1840009006"
"Melrose","Melrose","NM","New Mexico","35009","Curry","34.4289","-103.6296","473","108.1","shape","FALSE","TRUE","America/Denver","3","88124","1840022817"
"Excel","Excel","AL","Alabama","01099","Monroe","31.4264","-87.3433","473","110.9","shape","FALSE","TRUE","America/Chicago","4","36460 36445 36439","1840004979"
"Kake","Kake","AK","Alaska","02198","Prince of Wales-Hyder","56.9729","-133.9148","473","23.8","shape","FALSE","TRUE","America/Sitka","3","99830","1840023307"
"Millerville","Millerville","AL","Alabama","01027","Clay","33.1926","-85.9302","473","27.3","shape","FALSE","FALSE","America/Chicago","3","35072 36267 36251","1840022974"
"Long Branch","Long Branch","PA","Pennsylvania","42125","Washington","40.0984","-79.8801","473","57.2","shape","FALSE","TRUE","America/New_York","3","15423","1840003658"
"Lake McMurray","Lake McMurray","WA","Washington","53057","Skagit","48.3178","-122.2320","473","132.2","shape","FALSE","FALSE","America/Los_Angeles","3","98274","1840037893"
"Lucas","Lucas","OH","Ohio","39139","Richland","40.7042","-82.4222","473","269.7","shape","FALSE","TRUE","America/New_York","3","44843","1840011883"
"Parkman","Parkman","WY","Wyoming","56033","Sheridan","44.9488","-107.3077","473","19.0","shape","FALSE","FALSE","America/Denver","3","82838","1840018596"
"Hoyleton","Hoyleton","IL","Illinois","17189","Washington","38.4457","-89.2721","473","240.3","shape","FALSE","TRUE","America/Chicago","3","62803","1840012900"
"Polo","Polo","MO","Missouri","29025","Caldwell","39.5495","-94.0395","473","296.7","shape","FALSE","TRUE","America/Chicago","3","64671","1840009556"
"Falls Village","Falls Village","CT","Connecticut","09160","Northwest Hills","41.9576","-73.3561","473","114.5","shape","FALSE","FALSE","America/New_York","3","06031","1840026221"
"Powhatan","Powhatan","VA","Virginia","51145","Powhatan","37.5427","-77.9267","473","88.1","shape","FALSE","FALSE","America/New_York","3","23139","1840037427"
"Bowerston","Bowerston","OH","Ohio","39067","Harrison","40.4273","-81.1874","473","360.6","shape","FALSE","TRUE","America/New_York","3","44695","1840012212"
"Peak Place","Peak Place","NM","New Mexico","35049","Santa Fe","35.7911","-105.9432","473","139.8","shape","FALSE","TRUE","America/Denver","4","87506","1840040161"
"Veblen","Veblen","SD","South Dakota","46091","Marshall","45.8620","-97.2869","472","777.6","shape","FALSE","TRUE","America/Chicago","3","57270","1840002041"
"Soso","Soso","MS","Mississippi","28067","Jones","31.7536","-89.2759","472","89.7","shape","FALSE","TRUE","America/Chicago","3","39480","1840018163"
"Clarksville","Clarksville","MO","Missouri","29163","Pike","39.3693","-90.9049","472","313.5","shape","FALSE","TRUE","America/Chicago","3","63336","1840007342"
"Fort Duchesne","Fort Duchesne","UT","Utah","49047","Uintah","40.2809","-109.8774","472","25.5","shape","FALSE","FALSE","America/Denver","3","84026","1840017502"
"Hampton","Hampton","FL","Florida","12007","Bradford","29.8643","-82.1380","472","173.0","shape","FALSE","TRUE","America/New_York","3","32044","1840014006"
"Oceanside","Oceanside","OR","Oregon","41057","Tillamook","45.4549","-123.9610","472","175.6","shape","FALSE","FALSE","America/Los_Angeles","3","97134 97141","1840018550"
"Waldo","Waldo","WI","Wisconsin","55117","Sheboygan","43.6766","-87.9478","472","187.2","shape","FALSE","TRUE","America/Chicago","3","53093","1840002617"
"Austinburg","Austinburg","OH","Ohio","39007","Ashtabula","41.7692","-80.8556","472","55.5","shape","FALSE","FALSE","America/New_York","3","44010","1840026244"
"Cragsmoor","Cragsmoor","NY","New York","36111","Ulster","41.6655","-74.3912","472","41.8","shape","FALSE","FALSE","America/New_York","3","12566 12420","1840004704"
"Naytahwaush","Naytahwaush","MN","Minnesota","27087","Mahnomen","47.2703","-95.6335","472","62.7","shape","FALSE","FALSE","America/Chicago","3","56566","1840003999"
"Woodland","Woodland","UT","Utah","49043","Summit","40.5838","-111.2358","471","87.9","shape","FALSE","FALSE","America/Denver","3","84036","1840018724"
"St. Stephens","St. Stephens","AL","Alabama","01129","Washington","31.5474","-88.0556","471","18.4","shape","FALSE","FALSE","America/Chicago","3","36569","1840004299"
"Gauley Bridge","Gauley Bridge","WV","West Virginia","54019","Fayette","38.1681","-81.2039","471","116.3","shape","FALSE","TRUE","America/New_York","3","25090 25085","1840006294"
"Kandiyohi","Kandiyohi","MN","Minnesota","27067","Kandiyohi","45.1315","-94.9328","471","465.7","shape","FALSE","TRUE","America/Chicago","3","56251","1840007802"
"Carlton","Carlton","MT","Montana","30063","Missoula","46.6796","-114.0718","471","29.5","shape","FALSE","FALSE","America/Denver","3","59833","1840023811"
"Spokane","Spokane","LA","Louisiana","22029","Concordia","31.7130","-91.4453","471","77.3","shape","FALSE","FALSE","America/Chicago","3","71334","1840025949"
"Eubank","Eubank","KY","Kentucky","21199","Pulaski","37.2799","-84.6541","471","214.7","shape","FALSE","TRUE","America/New_York","3","42567","1840013252"
"Topsail Beach","Topsail Beach","NC","North Carolina","37141","Pender","34.3744","-77.6320","471","41.4","shape","FALSE","TRUE","America/New_York","3","28445","1840016604"
"Robinette","Robinette","WV","West Virginia","54045","Logan","37.7856","-81.7879","471","60.6","shape","FALSE","FALSE","America/New_York","3","25607","1840038205"
"New Ross","New Ross","IN","Indiana","18107","Montgomery","39.9646","-86.7142","471","397.0","shape","FALSE","TRUE","America/Indiana/Indianapolis","3","47968","1840009465"
"Pecan Park","Pecan Park","NM","New Mexico","35029","Luna","32.2704","-107.6740","471","22.2","shape","FALSE","TRUE","America/Denver","4","88030","1840040168"
"Lower Berkshire Valley","Lower Berkshire Valley","NJ","New Jersey","34027","Morris","40.9132","-74.6104","471","180.3","shape","FALSE","FALSE","America/New_York","3","07885","1840153045"
"Webster","Webster","NC","North Carolina","37099","Jackson","35.3500","-83.2188","470","181.9","shape","FALSE","TRUE","America/New_York","3","28779 28788","1840016348"
"Dupree","Dupree","SD","South Dakota","46137","Ziebach","45.0495","-101.6013","470","463.0","shape","FALSE","TRUE","America/Denver","3","57623","1840000276"
"Bethel","Bethel","MN","Minnesota","27003","Anoka","45.4022","-93.2711","470","185.1","shape","FALSE","TRUE","America/Chicago","3","55005","1840006718"
"North Lynbrook","North Lynbrook","NY","New York","36059","Nassau","40.6685","-73.6736","470","3261.3","shape","FALSE","FALSE","America/New_York","2","11563","1840034039"
"Cream Ridge","Cream Ridge","NJ","New Jersey","34025","Monmouth","40.1326","-74.5348","470","60.1","shape","FALSE","FALSE","America/New_York","3","08514","1840033255"
"Danwood","Danwood","SC","South Carolina","45041","Florence","34.0903","-79.7695","470","95.6","shape","FALSE","FALSE","America/New_York","3","29505 29541","1840107272"
"Polk","Polk","OH","Ohio","39005","Ashland","40.9449","-82.2147","470","179.3","shape","FALSE","TRUE","America/New_York","3","44866","1840011804"
"North Santee","North Santee","SC","South Carolina","45027","Clarendon","33.5368","-80.4182","470","19.9","shape","FALSE","FALSE","America/New_York","3","29148","1840144327"
"Avinger","Avinger","TX","Texas","48067","Cass","32.8980","-94.5533","470","93.3","shape","FALSE","TRUE","America/Chicago","3","75630","1840020681"
"Hickory","Hickory","MS","Mississippi","28101","Newton","32.3167","-89.0217","470","194.0","shape","FALSE","TRUE","America/Chicago","3","39332","1840015806"
"Neola","Neola","UT","Utah","49013","Duchesne","40.4343","-110.0309","470","48.1","shape","FALSE","FALSE","America/Denver","3","84053","1840018750"
"Branch","Branch","LA","Louisiana","22001","Acadia","30.3480","-92.2771","470","24.7","shape","FALSE","FALSE","America/Chicago","3","70516","1840026025"
"De Beque","De Beque","CO","Colorado","08077","Mesa","39.3105","-108.2049","470","65.3","shape","FALSE","TRUE","America/Denver","3","81630","1840021461"
"Johnsonburg","Johnsonburg","NJ","New Jersey","34041","Warren","40.9623","-74.8765","470","170.4","shape","FALSE","FALSE","America/New_York","3","07846 07821 07825","1840024230"
"Mamanasco Lake","Mamanasco Lake","CT","Connecticut","09190","Western Connecticut","41.3189","-73.5253","470","443.2","shape","FALSE","FALSE","America/New_York","3","06877","1840151855"
"Stotonic Village","Stotonic Village","AZ","Arizona","04021","Pinal","33.1528","-111.8167","470","35.5","shape","FALSE","TRUE","America/Phoenix","4","85248 85147","1840042796"
"Firth","Firth","NE","Nebraska","31109","Lancaster","40.5360","-96.6046","469","762.9","shape","FALSE","TRUE","America/Chicago","3","68358","1840011848"
"Cape Royale","Cape Royale","TX","Texas","48407","San Jacinto","30.6531","-95.1265","469","92.1","shape","FALSE","FALSE","America/Chicago","3","77331","1840139772"
"Wenden","Wenden","AZ","Arizona","04012","La Paz","33.8324","-113.5432","469","12.1","shape","FALSE","FALSE","America/Phoenix","3","85357 85348","1840019270"
"Lake Milton","Lake Milton","OH","Ohio","39099","Mahoning","41.0960","-80.9812","469","121.9","shape","FALSE","FALSE","America/New_York","3","44429","1840034119"
"Gilman","Gilman","WI","Wisconsin","55119","Taylor","45.1662","-90.8072","469","77.4","shape","FALSE","TRUE","America/Chicago","3","54433","1840001569"
"Beverly Hills","Beverly Hills","MO","Missouri","29189","St. Louis","38.6979","-90.2901","469","2807.9","shape","FALSE","TRUE","America/Chicago","2","63121","1840007451"
"Laurel Hill","Laurel Hill","FL","Florida","12091","Okaloosa","30.9623","-86.4586","469","43.1","shape","FALSE","TRUE","America/Chicago","3","32567","1840015010"
"Sigel","Sigel","IL","Illinois","17173","Shelby","39.2257","-88.4945","469","240.0","shape","FALSE","TRUE","America/Chicago","3","62462","1840010614"
"Lefors","Lefors","TX","Texas","48179","Gray","35.4396","-100.8040","469","464.8","shape","FALSE","TRUE","America/Chicago","3","79054","1840022590"
"Menlo","Menlo","GA","Georgia","13055","Chattooga","34.4835","-85.4776","469","231.3","shape","FALSE","TRUE","America/New_York","3","30731","1840014679"
"Camden Point","Camden Point","MO","Missouri","29165","Platte","39.4532","-94.7489","469","283.1","shape","FALSE","TRUE","America/Chicago","3","64018","1840007356"
"Arlington","Arlington","IN","Indiana","18139","Rush","39.6458","-85.5797","469","228.2","shape","FALSE","FALSE","America/Indiana/Indianapolis","3","46104","1840026613"
"Bowersville","Bowersville","GA","Georgia","13147","Hart","34.3730","-83.0838","469","55.7","shape","FALSE","TRUE","America/New_York","3","30516","1840015564"
"Leasburg","Leasburg","MO","Missouri","29055","Crawford","38.0950","-91.2952","469","418.8","shape","FALSE","TRUE","America/Chicago","3","65535","1840012949"
"Bell","Bell","FL","Florida","12041","Gilchrist","29.7568","-82.8620","469","110.6","shape","FALSE","TRUE","America/New_York","3","32619","1840015944"
"La Paz Valley","La Paz Valley","AZ","Arizona","04012","La Paz","33.5582","-114.2434","469","6.2","shape","FALSE","FALSE","America/Phoenix","3","85346","1840022878"
"Alma","Alma","TX","Texas","48139","Ellis","32.2813","-96.5497","469","33.5","shape","FALSE","TRUE","America/Chicago","3","75119","1840022084"
"Green Valley Farms","Green Valley Farms","TX","Texas","48061","Cameron","26.1219","-97.5610","468","46.8","shape","FALSE","FALSE","America/Chicago","3","78586","1840037049"
"Big Bay","Big Bay","MI","Michigan","26103","Marquette","46.8145","-87.6997","468","46.4","shape","FALSE","FALSE","America/Detroit","3","49808","1840006572"
"Killington Village","Killington Village","VT","Vermont","50021","Rutland","43.6505","-72.7851","468","30.4","shape","FALSE","FALSE","America/New_York","3","05751","1840143100"
"Silo","Silo","OK","Oklahoma","40013","Bryan","34.0356","-96.4744","468","347.3","shape","FALSE","TRUE","America/Chicago","3","74701","1840022899"
"Whitefield","Whitefield","OK","Oklahoma","40061","Haskell","35.2545","-95.2391","468","105.8","shape","FALSE","TRUE","America/Chicago","3","74472","1840022770"
"Mount Aetna","Mount Aetna","PA","Pennsylvania","42011","Berks","40.4206","-76.2966","468","365.2","shape","FALSE","FALSE","America/New_York","3","19544 17067","1840026452"
"Woodbourne","Woodbourne","NY","New York","36105","Sullivan","41.7610","-74.5978","468","250.7","shape","FALSE","FALSE","America/New_York","3","12788","1840033993"
"Charter Oak","Charter Oak","IA","Iowa","19047","Crawford","42.0682","-95.5897","468","352.0","shape","FALSE","TRUE","America/Chicago","3","51439","1840007004"
"Van Voorhis","Van Voorhis","PA","Pennsylvania","42125","Washington","40.1598","-79.9731","468","54.9","shape","FALSE","FALSE","America/New_York","3","15366","1840024316"
"New Auburn","New Auburn","MN","Minnesota","27143","Sibley","44.6728","-94.2320","468","265.0","shape","FALSE","TRUE","America/Chicago","3","55336 55366","1840007868"
"Iuka","Iuka","IL","Illinois","17121","Marion","38.6181","-88.7881","468","246.4","shape","FALSE","TRUE","America/Chicago","3","62849","1840012843"
"Freeville","Freeville","NY","New York","36109","Tompkins","42.5114","-76.3457","468","170.7","shape","FALSE","TRUE","America/New_York","3","13068","1840004542"
"Grantfork","Grantfork","IL","Illinois","17119","Madison","38.8289","-89.6665","468","170.1","shape","FALSE","TRUE","America/Chicago","3","62249","1840012790"
"Mud Lake","Mud Lake","ID","Idaho","16051","Jefferson","43.8431","-112.4798","468","320.9","shape","FALSE","TRUE","America/Boise","3","83450","1840020024"
"Nazlini","Nazlini","AZ","Arizona","04001","Apache","35.9155","-109.4726","468","24.2","shape","FALSE","FALSE","America/Denver","3","86540","1840018997"
"South Renovo","South Renovo","PA","Pennsylvania","42035","Clinton","41.3244","-77.7430","467","546.0","shape","FALSE","TRUE","America/New_York","3","17764","1840035202"
"Rose Bud","Rose Bud","AR","Arkansas","05145","White","35.3249","-92.0810","467","29.9","shape","FALSE","TRUE","America/Chicago","3","72137","1840017838"
"Wrightstown","Wrightstown","NJ","New Jersey","34005","Burlington","40.0258","-74.6318","467","97.4","shape","FALSE","TRUE","America/New_York","3","08640 08562","1840001481"
"Conesville","Conesville","IA","Iowa","19139","Muscatine","41.3795","-91.3486","467","233.3","shape","FALSE","TRUE","America/Chicago","3","52739","1840007096"
"St. Marys Point","St. Marys Point","MN","Minnesota","27163","Washington","44.9128","-92.7702","467","434.9","shape","FALSE","TRUE","America/Chicago","3","55043","1840008916"
"Phillipsburg","Phillipsburg","GA","Georgia","13277","Tift","31.4389","-83.5203","467","786.9","shape","FALSE","FALSE","America/New_York","3","31794","1840029310"
"Marquette","Marquette","IA","Iowa","19043","Clayton","43.0443","-91.1920","467","97.1","shape","FALSE","TRUE","America/Chicago","3","52157 52158","1840008014"
"Highland Haven","Highland Haven","TX","Texas","48053","Burnet","30.6074","-98.3951","467","408.6","shape","FALSE","TRUE","America/Chicago","3","78654","1840020868"
"Brooktondale","Brooktondale","NY","New York","36109","Tompkins","42.3824","-76.3986","467","203.8","shape","FALSE","FALSE","America/New_York","3","14817","1840083130"
"Troutville","Troutville","VA","Virginia","51023","Botetourt","37.4168","-79.8779","467","260.7","shape","FALSE","TRUE","America/New_York","3","24175","1840006380"
"Vermillion","Vermillion","MN","Minnesota","27037","Dakota","44.6736","-92.9643","467","183.0","shape","FALSE","TRUE","America/Chicago","3","55085","1840010011"
"Candlewood Isle","Candlewood Isle","CT","Connecticut","09190","Western Connecticut","41.4777","-73.4523","467","460.5","shape","FALSE","FALSE","America/New_York","3","06812","1840147196"
"Pine Forest","Pine Forest","TX","Texas","48361","Orange","30.1757","-94.0367","467","64.0","shape","FALSE","TRUE","America/Chicago","3","77662","1840020911"
"Risingsun","Risingsun","OH","Ohio","39173","Wood","41.2671","-83.4268","467","316.5","shape","FALSE","TRUE","America/New_York","3","43457","1840011556"
"Waynesville","Waynesville","IL","Illinois","17039","De Witt","40.2412","-89.1244","467","255.5","shape","FALSE","TRUE","America/Chicago","3","61778","1840012317"
"Kulm","Kulm","ND","North Dakota","38045","LaMoure","46.3019","-98.9468","467","246.1","shape","FALSE","TRUE","America/Chicago","3","58456","1840000218"
"Wassaic","Wassaic","NY","New York","36027","Dutchess","41.8064","-73.5593","466","196.3","shape","FALSE","FALSE","America/New_York","3","12592","1840085720"
"Thornton","Thornton","IA","Iowa","19033","Cerro Gordo","42.9442","-93.3870","466","144.7","shape","FALSE","TRUE","America/Chicago","3","50479","1840010067"
"Bancroft","Bancroft","WV","West Virginia","54079","Putnam","38.5107","-81.8417","466","942.9","shape","FALSE","TRUE","America/New_York","3","25011","1840006181"
"Thompson","Thompson","IA","Iowa","19189","Winnebago","43.3700","-93.7747","466","210.0","shape","FALSE","TRUE","America/Chicago","3","50478","1840009017"
"Ray","Ray","AL","Alabama","01037","Coosa","32.8795","-86.0388","466","19.0","shape","FALSE","FALSE","America/Chicago","3","35010","1840023021"
"Biggers","Biggers","AR","Arkansas","05121","Randolph","36.3319","-90.8052","466","179.5","shape","FALSE","TRUE","America/Chicago","3","72413","1840015295"
"Tannersville","Tannersville","NY","New York","36039","Greene","42.1936","-74.1350","466","160.9","shape","FALSE","TRUE","America/New_York","3","12485","1840004648"
"Hume","Hume","IL","Illinois","17045","Edgar","39.7981","-87.8686","466","318.0","shape","FALSE","TRUE","America/Chicago","3","61932","1840012502"
"Preston-Potter Hollow","Preston-Potter Hollow","NY","New York","36001","Albany","42.4330","-74.2288","466","17.8","shape","FALSE","TRUE","America/New_York","4","12469","1840073658"
"Sunrise Shores","Sunrise Shores","TX","Texas","48213","Henderson","32.1801","-95.5056","466","506.8","shape","FALSE","FALSE","America/Chicago","3","75758","1840146926"
"Malcolm","Malcolm","NE","Nebraska","31109","Lancaster","40.9090","-96.8658","466","100.9","shape","FALSE","TRUE","America/Chicago","3","68402","1840011851"
"Ash Fork","Ash Fork","AZ","Arizona","04025","Yavapai","35.2171","-112.4913","466","78.0","shape","FALSE","FALSE","America/Phoenix","3","86320","1840017844"
"Turah","Turah","MT","Montana","30063","Missoula","46.8397","-113.8250","466","134.9","shape","FALSE","FALSE","America/Denver","3","59825 59802","1840023815"
"Cochiti Lake","Cochiti Lake","NM","New Mexico","35043","Sandoval","35.6478","-106.3425","466","144.7","shape","FALSE","FALSE","America/Denver","3","87083","1840024904"
"New Baltimore","New Baltimore","NY","New York","36039","Greene","42.4489","-73.7941","466","102.4","shape","FALSE","FALSE","America/New_York","3","12124 12192","1840153010"
"Lake City","Lake City","CO","Colorado","08053","Hinsdale","38.0303","-107.3106","465","216.9","shape","FALSE","TRUE","America/Denver","3","81235","1840021528"
"Prentice","Prentice","WI","Wisconsin","55099","Price","45.5409","-90.2897","465","88.9","shape","FALSE","TRUE","America/Chicago","3","54556","1840002012"
"Strong City","Strong City","KS","Kansas","20017","Chase","38.3955","-96.5370","465","327.5","shape","FALSE","TRUE","America/Chicago","3","66869","1840009806"
"Marianna","Marianna","PA","Pennsylvania","42125","Washington","40.0128","-80.1121","465","91.8","shape","FALSE","TRUE","America/New_York","3","15345","1840003659"
"Mantee","Mantee","MS","Mississippi","28155","Webster","33.7226","-89.0597","465","39.4","shape","FALSE","TRUE","America/Chicago","3","39751","1840018005"
"St. Helena","St. Helena","NC","North Carolina","37141","Pender","34.5166","-77.9174","465","31.8","shape","FALSE","TRUE","America/New_York","3","28425","1840017926"
"La Plena","La Plena","PR","Puerto Rico","72123","Salinas","18.0411","-66.2064","465","92.0","shape","FALSE","FALSE","America/Puerto_Rico","3","00751","1630035497"
"West Stewartstown","West Stewartstown","NH","New Hampshire","33007","Coos","44.9907","-71.5311","465","290.0","shape","FALSE","FALSE","America/New_York","3","03597","1840026108"
"Kelayres","Kelayres","PA","Pennsylvania","42107","Schuylkill","40.9007","-76.0045","465","628.1","shape","FALSE","FALSE","America/New_York","3","18231","1840035040"
"Peachland","Peachland","NC","North Carolina","37007","Anson","34.9931","-80.2660","465","178.1","shape","FALSE","TRUE","America/New_York","3","28133","1840016451"
"Carmichaels","Carmichaels","PA","Pennsylvania","42059","Greene","39.8977","-79.9749","465","1056.2","shape","FALSE","TRUE","America/New_York","3","15320","1840000717"
"Walnuttown","Walnuttown","PA","Pennsylvania","42011","Berks","40.4467","-75.8405","464","302.1","shape","FALSE","FALSE","America/New_York","3","19522","1840026466"
"Griffith Creek","Griffith Creek","TN","Tennessee","47115","Marion","35.2761","-85.5361","464","58.0","shape","FALSE","FALSE","America/Chicago","3","37397","1840109804"
"Norbourne Estates","Norbourne Estates","KY","Kentucky","21111","Jefferson","38.2466","-85.6465","464","2254.8","shape","FALSE","TRUE","America/New_York","2","40207","1840030542"
"Leakey","Leakey","TX","Texas","48385","Real","29.7254","-99.7631","464","319.4","shape","FALSE","TRUE","America/Chicago","3","78873","1840020935"
"Springfield","Springfield","LA","Louisiana","22063","Livingston","30.4255","-90.5444","464","127.5","shape","FALSE","TRUE","America/Chicago","3","70462","1840018226"
"Perdido Beach","Perdido Beach","AL","Alabama","01003","Baldwin","30.3554","-87.5036","464","151.2","shape","FALSE","TRUE","America/Chicago","3","36530","1840023131"
"Snydertown","Snydertown","PA","Pennsylvania","42027","Centre","40.9872","-77.5994","464","57.1","shape","FALSE","FALSE","America/New_York","3","16841","1840146950"
"Symsonia","Symsonia","KY","Kentucky","21083","Graves","36.9211","-88.5227","464","117.9","shape","FALSE","FALSE","America/Chicago","3","42082","1840026922"
"Freeport","Freeport","OH","Ohio","39067","Harrison","40.2109","-81.2686","464","299.1","shape","FALSE","TRUE","America/New_York","3","43973","1840012217"
"Hudson","Hudson","WY","Wyoming","56013","Fremont","42.9028","-108.5819","463","419.6","shape","FALSE","TRUE","America/Denver","3","82515","1840021270"
"Paw Paw","Paw Paw","WV","West Virginia","54065","Morgan","39.5313","-78.4553","463","337.2","shape","FALSE","TRUE","America/New_York","3","25434","1840005719"
"Willernie","Willernie","MN","Minnesota","27163","Washington","45.0539","-92.9571","463","1875.5","shape","FALSE","TRUE","America/Chicago","3","55090","1840009997"
"Buckholts","Buckholts","TX","Texas","48331","Milam","30.8740","-97.1289","463","131.6","shape","FALSE","TRUE","America/Chicago","3","76518","1840022160"
"Waresboro","Waresboro","GA","Georgia","13299","Ware","31.2451","-82.4721","463","59.1","shape","FALSE","FALSE","America/New_York","3","31503 31564","1840029441"
"Beech Bluff","Beech Bluff","TN","Tennessee","47113","Madison","35.6047","-88.6292","463","40.7","shape","FALSE","FALSE","America/Chicago","3","38313","1840036113"
"Agency","Agency","IA","Iowa","19179","Wapello","40.9970","-92.3073","463","316.0","shape","FALSE","TRUE","America/Chicago","3","52530","1840007149"
"Minnetonka Beach","Minnetonka Beach","MN","Minnesota","27053","Hennepin","44.9385","-93.5865","463","382.5","shape","FALSE","TRUE","America/Chicago","3","55391 55361","1840007832"
"Giltner","Giltner","NE","Nebraska","31081","Hamilton","40.7749","-98.1535","463","461.5","shape","FALSE","TRUE","America/Chicago","3","68841","1840011734"
"Howard","Howard","OH","Ohio","39083","Knox","40.4092","-82.3275","463","240.5","shape","FALSE","FALSE","America/New_York","3","43028","1840026493"
"Powellton","Powellton","WV","West Virginia","54019","Fayette","38.0941","-81.3220","463","33.4","shape","FALSE","FALSE","America/New_York","3","25118 25161","1840006292"
"Pierron","Pierron","IL","Illinois","17005","Bond","38.7772","-89.5645","463","243.5","shape","FALSE","TRUE","America/Chicago","3","62249 62273 62275","1840012783"
"Canton","Canton","MN","Minnesota","27045","Fillmore","43.5298","-91.9300","463","173.5","shape","FALSE","TRUE","America/Chicago","3","55922","1840006836"
"Texhoma","Texhoma","TX","Texas","48421","Sherman","36.4937","-101.7937","463","94.2","shape","FALSE","TRUE","America/Chicago","4","79086 73960","1840037452"
"Dodgeville","Dodgeville","MI","Michigan","26061","Houghton","47.0909","-88.5828","463","331.0","shape","FALSE","FALSE","America/Detroit","3","49921 49931","1840070682"
"Wilkeson","Wilkeson","WA","Washington","53053","Pierce","47.1033","-122.0494","463","383.4","shape","FALSE","TRUE","America/Los_Angeles","3","98396","1840022310"
"Fairfield","Fairfield","ID","Idaho","16025","Camas","43.3489","-114.8006","463","204.0","shape","FALSE","TRUE","America/Boise","3","83327","1840020044"
"Pinecraft","Pinecraft","FL","Florida","12115","Sarasota","27.3229","-82.4999","463","1289.9","shape","FALSE","FALSE","America/New_York","3","34232 34237 34239","1840047792"
"Washington Crossing","Washington Crossing","NJ","New Jersey","34021","Mercer","40.2960","-74.8615","463","250.6","shape","FALSE","FALSE","America/New_York","3","08560","1840081493"
"Norwich","Norwich","KS","Kansas","20095","Kingman","37.4572","-97.8480","463","445.0","shape","FALSE","TRUE","America/Chicago","3","67118","1840008719"
"Beaver","Beaver","OH","Ohio","39131","Pike","39.0319","-82.8252","463","458.1","shape","FALSE","TRUE","America/New_York","3","45613","1840012751"
"Sunrise Beach","Sunrise Beach","MO","Missouri","29029","Camden","38.1667","-92.7800","463","31.1","shape","FALSE","TRUE","America/Chicago","3","65079","1840012920"
"Tilghmanton","Tilghmanton","MD","Maryland","24043","Washington","39.5286","-77.7437","463","385.3","shape","FALSE","FALSE","America/New_York","3","21713","1840024412"
"New Washington","New Washington","IN","Indiana","18019","Clark","38.5656","-85.5461","463","34.3","shape","FALSE","FALSE","America/Kentucky/Louisville","3","47147 47162","1840006209"
"Billings","Billings","OK","Oklahoma","40103","Noble","36.5316","-97.4352","463","265.6","shape","FALSE","TRUE","America/Chicago","3","74630","1840020372"
"Diagonal","Diagonal","IA","Iowa","19159","Ringgold","40.8104","-94.3420","463","195.8","shape","FALSE","TRUE","America/Chicago","3","50845","1840007196"
"Belleplain","Belleplain","NJ","New Jersey","34009","Cape May","39.2662","-74.8672","463","24.4","shape","FALSE","FALSE","America/New_York","3","08270","1840026666"
"North Anson","North Anson","ME","Maine","23025","Somerset","44.8614","-69.8975","462","84.5","shape","FALSE","FALSE","America/New_York","3","04958","1840065144"
"Ehrhardt","Ehrhardt","SC","South Carolina","45009","Bamberg","33.0985","-81.0138","462","57.3","shape","FALSE","TRUE","America/New_York","3","29081","1840016873"
"Harbor Hills","Harbor Hills","NY","New York","36059","Nassau","40.7880","-73.7492","462","1489.9","shape","FALSE","FALSE","America/New_York","3","11023","1840005262"
"Ooltewah","Ooltewah","TN","Tennessee","47065","Hamilton","35.0723","-85.0545","462","288.6","shape","FALSE","FALSE","America/New_York","3","37363","1840013451"
"Adell","Adell","WI","Wisconsin","55117","Sheboygan","43.6212","-87.9482","462","319.8","shape","FALSE","TRUE","America/Chicago","3","53001","1840002622"
"Reeltown","Reeltown","AL","Alabama","01123","Tallapoosa","32.5788","-85.8189","462","23.6","shape","FALSE","FALSE","America/Chicago","3","36078 36866","1840023018"
"Balmorhea","Balmorhea","TX","Texas","48389","Reeves","30.9840","-103.7438","462","347.8","shape","FALSE","TRUE","America/Chicago","3","79718","1840019527"
"Broad Top City","Broad Top City","PA","Pennsylvania","42061","Huntingdon","40.2012","-78.1405","462","263.6","shape","FALSE","TRUE","America/New_York","3","16621","1840001064"
"Westphalia","Westphalia","MO","Missouri","29151","Osage","38.4414","-92.0005","462","155.4","shape","FALSE","TRUE","America/Chicago","3","65085","1840010771"
"Eminence","Eminence","MO","Missouri","29203","Shannon","37.1509","-91.3586","462","94.6","shape","FALSE","TRUE","America/Chicago","3","65466","1840008758"
"Whitakers","Whitakers","NC","North Carolina","37127","Nash","36.1057","-77.7131","462","214.6","shape","FALSE","TRUE","America/New_York","3","27891","1840016166"
"El Veintis√©is","El Veintiseis","PR","Puerto Rico","72137","Toa Baja","18.4394","-66.2035","462","231.3","shape","FALSE","FALSE","America/Puerto_Rico","3","00952","1630151312"
"Grover Hill","Grover Hill","OH","Ohio","39125","Paulding","41.0190","-84.4774","461","333.8","shape","FALSE","TRUE","America/New_York","3","45849","1840011722"
"Mowrystown","Mowrystown","OH","Ohio","39071","Highland","39.0406","-83.7518","461","369.1","shape","FALSE","TRUE","America/New_York","3","45155","1840012696"
"Roberts","Roberts","ID","Idaho","16051","Jefferson","43.7208","-112.1284","461","1082.0","shape","FALSE","TRUE","America/Boise","3","83444","1840020022"
"Nesco","Nesco","NJ","New Jersey","34001","Atlantic","39.6380","-74.6954","461","67.4","shape","FALSE","FALSE","America/New_York","3","08037","1840033362"
"Western Grove","Western Grove","AR","Arkansas","05101","Newton","36.1011","-92.9546","461","165.2","shape","FALSE","TRUE","America/Chicago","3","72685","1840016186"
"Valley Falls","Valley Falls","NY","New York","36083","Rensselaer","42.9006","-73.5627","461","384.1","shape","FALSE","TRUE","America/New_York","3","12185","1840004439"
"Hudson","Hudson","SD","South Dakota","46083","Lincoln","43.1301","-96.4556","461","507.2","shape","FALSE","TRUE","America/Chicago","3","57034","1840002846"
"Jupiter Inlet Colony","Jupiter Inlet Colony","FL","Florida","12099","Palm Beach","26.9480","-80.0755","461","926.8","shape","FALSE","TRUE","America/New_York","3","33469","1840036152"
"North La Junta","North La Junta","CO","Colorado","08089","Otero","37.9986","-103.5227","461","130.9","shape","FALSE","FALSE","America/Denver","3","81050","1840024706"
"Fargo","Fargo","GA","Georgia","13065","Clinch","30.6881","-82.5721","460","64.7","shape","FALSE","TRUE","America/New_York","3","31631","1840013893"
"Sportsmen Acres","Sportsmen Acres","OK","Oklahoma","40097","Mayes","36.2458","-95.2517","460","473.9","shape","FALSE","TRUE","America/Chicago","3","74361","1840022670"
"Eakly","Eakly","OK","Oklahoma","40015","Caddo","35.3055","-98.5560","460","333.1","shape","FALSE","TRUE","America/Chicago","3","73033","1840021765"
"Frankford","Frankford","MO","Missouri","29163","Pike","39.4927","-91.3203","460","414.9","shape","FALSE","TRUE","America/Chicago","3","63441","1840008464"
"Pillager","Pillager","MN","Minnesota","27021","Cass","46.3295","-94.4796","460","209.1","shape","FALSE","TRUE","America/Chicago","3","56473","1840008836"
"Potters Hill","Potters Hill","NC","North Carolina","37061","Duplin","34.9645","-77.6983","460","33.2","shape","FALSE","FALSE","America/New_York","3","28572","1840025833"
"Crystal Lake Park","Crystal Lake Park","MO","Missouri","29189","St. Louis","38.6212","-90.4321","460","902.4","shape","FALSE","TRUE","America/Chicago","3","63131","1840007444"
"Cherry","Cherry","IL","Illinois","17011","Bureau","41.4280","-89.2132","460","341.9","shape","FALSE","TRUE","America/Chicago","3","61312 61317","1840010240"
"Finley Point","Finley Point","MT","Montana","30047","Lake","47.7464","-114.0666","460","41.6","shape","FALSE","FALSE","America/Denver","3","59860","1840032845"
"Hull","Hull","IL","Illinois","17149","Pike","39.7087","-91.2033","460","97.3","shape","FALSE","TRUE","America/Chicago","3","62343","1840012531"
"Monroe Center","Monroe Center","IL","Illinois","17141","Ogle","42.1003","-88.9941","460","146.5","shape","FALSE","TRUE","America/Chicago","3","61052","1840011237"
"Lyons","Lyons","TX","Texas","48051","Burleson","30.3985","-96.5499","459","59.9","shape","FALSE","FALSE","America/Chicago","3","77863 77879","1840036495"
"Lockhart","Lockhart","SC","South Carolina","45087","Union","34.7922","-81.4613","459","188.3","shape","FALSE","TRUE","America/New_York","3","29364","1840016543"
"Brockton","Brockton","MT","Montana","30085","Roosevelt","48.1525","-104.9066","459","179.0","shape","FALSE","FALSE","America/Denver","3","59213","1840021070"
"Murray","Murray","NE","Nebraska","31025","Cass","40.9163","-95.9267","459","259.5","shape","FALSE","TRUE","America/Chicago","3","68409","1840011815"
"Crawford","Crawford","CO","Colorado","08029","Delta","38.7051","-107.6097","459","465.4","shape","FALSE","TRUE","America/Denver","3","81415","1840021465"
"Cook","Cook","MN","Minnesota","27137","St. Louis","47.8412","-92.6887","459","68.2","shape","FALSE","TRUE","America/Chicago","3","55723","1840006589"
"Nances Creek","Nances Creek","AL","Alabama","01015","Calhoun","33.8588","-85.6733","459","30.5","shape","FALSE","FALSE","America/Chicago","3","36265 36272","1840022931"
"Lodge Grass","Lodge Grass","MT","Montana","30003","Big Horn","45.3142","-107.3677","459","438.6","shape","FALSE","TRUE","America/Denver","3","59050","1840021192"
"East Dunseith","East Dunseith","ND","North Dakota","38079","Rolette","48.8547","-100.0285","459","34.6","shape","FALSE","FALSE","America/Chicago","3","58329","1840033126"
"Dushore","Dushore","PA","Pennsylvania","42113","Sullivan","41.5250","-76.3987","459","224.8","shape","FALSE","TRUE","America/New_York","3","18614","1840003435"
"Bailey","Bailey","NC","North Carolina","37127","Nash","35.7805","-78.1130","459","252.5","shape","FALSE","TRUE","America/New_York","3","27807","1840015344"
"El Nido","El Nido","CA","California","06047","Merced","37.1324","-120.4985","459","53.8","shape","FALSE","FALSE","America/Los_Angeles","3","95317","1840024771"
"Saltillo","Saltillo","PA","Pennsylvania","42061","Huntingdon","40.2117","-78.0062","459","433.6","shape","FALSE","TRUE","America/New_York","3","17253","1840001076"
"Allensworth","Allensworth","CA","California","06107","Tulare","35.8500","-119.3892","459","57.1","shape","FALSE","FALSE","America/Los_Angeles","3","93219","1840024864"
"Bennetts Switch","Bennetts Switch","IN","Indiana","18103","Miami","40.5872","-86.1099","458","439.9","shape","FALSE","TRUE","America/Indiana/Indianapolis","3","46901","1840000760"
"Wattsburg","Wattsburg","PA","Pennsylvania","42049","Erie","42.0029","-79.8070","458","312.6","shape","FALSE","TRUE","America/New_York","3","16442","1840000487"
"Plum Springs","Plum Springs","KY","Kentucky","21227","Warren","37.0210","-86.3777","458","333.2","shape","FALSE","TRUE","America/Chicago","3","42101","1840014390"
"Lewiston Woodville","Lewiston Woodville","NC","North Carolina","37015","Bertie","36.1141","-77.1811","458","90.4","shape","FALSE","TRUE","America/New_York","3","27849","1840016148"
"Morral","Morral","OH","Ohio","39101","Marion","40.6914","-83.2098","458","65.5","shape","FALSE","TRUE","America/New_York","3","43337","1840012029"
"Alta Vista","Alta Vista","KS","Kansas","20197","Wabaunsee","38.8628","-96.4888","458","454.5","shape","FALSE","TRUE","America/Chicago","3","66834","1840007404"
"Point Comfort","Point Comfort","TX","Texas","48057","Calhoun","28.6715","-96.5591","458","134.5","shape","FALSE","TRUE","America/Chicago","3","77979 77978","1840020995"
"Danube","Danube","MN","Minnesota","27129","Renville","44.7910","-95.1029","458","362.8","shape","FALSE","TRUE","America/Chicago","3","56230","1840006772"
"South Fork","South Fork","CO","Colorado","08105","Rio Grande","37.6691","-106.6417","458","70.8","shape","FALSE","TRUE","America/Denver","3","81154","1840022544"
"Kenvir","Kenvir","KY","Kentucky","21095","Harlan","36.8532","-83.1539","458","198.0","shape","FALSE","FALSE","America/New_York","3","40828 40847","1840026897"
"Butternut","Butternut","WI","Wisconsin","55003","Ashland","46.0133","-90.4974","458","111.9","shape","FALSE","TRUE","America/Chicago","3","54514","1840003917"
"Hatteras","Hatteras","NC","North Carolina","37055","Dare","35.2176","-75.6872","458","112.1","shape","FALSE","FALSE","America/New_York","3","27943","1840025783"
"Turkey Creek","Turkey Creek","AZ","Arizona","04017","Navajo","33.8011","-109.9461","457","214.7","shape","FALSE","TRUE","America/Phoenix","3","85941","1840075498"
"Warner","Warner","SD","South Dakota","46013","Brown","45.3252","-98.4952","457","320.4","shape","FALSE","TRUE","America/Chicago","3","57479","1840002030"
"Livermore","Livermore","IA","Iowa","19091","Humboldt","42.8681","-94.1841","457","257.4","shape","FALSE","TRUE","America/Chicago","3","50558","1840009081"
"Wheatfields","Wheatfields","AZ","Arizona","04007","Gila","33.4805","-110.8366","457","21.9","shape","FALSE","TRUE","America/Phoenix","4","85501","1840075566"
"Stanfield","Stanfield","AZ","Arizona","04021","Pinal","32.8794","-111.9636","457","44.9","shape","FALSE","FALSE","America/Phoenix","3","85172","1840019366"
"Jenkins","Jenkins","MN","Minnesota","27035","Crow Wing","46.6528","-94.3298","457","39.5","shape","FALSE","TRUE","America/Chicago","3","56472 56474 56456","1840007742"
"Beckwourth","Beckwourth","CA","California","06063","Plumas","39.8485","-120.4111","457","15.1","shape","FALSE","FALSE","America/Los_Angeles","3","96122","1840017511"
"Hartford","Hartford","KS","Kansas","20111","Lyon","38.3084","-95.9566","457","445.7","shape","FALSE","TRUE","America/Chicago","3","66854","1840007471"
"Racine","Racine","WV","West Virginia","54005","Boone","38.1398","-81.6540","457","368.7","shape","FALSE","FALSE","America/New_York","3","25165","1840025688"
"Huxley","Huxley","TX","Texas","48419","Shelby","31.7644","-93.8849","457","86.4","shape","FALSE","TRUE","America/Chicago","3","75973","1840019529"
"Ghent","Ghent","MN","Minnesota","27083","Lyon","44.5116","-95.8926","457","303.9","shape","FALSE","TRUE","America/Chicago","3","56239","1840007878"
"McKnightstown","McKnightstown","PA","Pennsylvania","42001","Adams","39.8735","-77.3302","457","122.0","shape","FALSE","FALSE","America/New_York","3","17307 17343","1840026578"
"Aguilar","Aguilar","CO","Colorado","08071","Las Animas","37.4036","-104.6550","456","448.8","shape","FALSE","TRUE","America/Denver","3","81020","1840021546"
"West Elizabeth","West Elizabeth","PA","Pennsylvania","42003","Allegheny","40.2721","-79.8952","456","818.2","shape","FALSE","TRUE","America/New_York","3","15088 15025","1840001271"
"Little Mountain","Little Mountain","SC","South Carolina","45071","Newberry","34.1968","-81.4124","456","115.8","shape","FALSE","TRUE","America/New_York","3","29075","1840016632"
"Bishop","Bishop","GA","Georgia","13219","Oconee","33.8171","-83.4372","456","213.4","shape","FALSE","TRUE","America/New_York","3","30621","1840015647"
"Crystal Lakes","Crystal Lakes","MO","Missouri","29177","Ray","39.3606","-94.1874","456","160.0","shape","FALSE","TRUE","America/Chicago","3","64024","1840007360"
"Sylvan Hills","Sylvan Hills","PA","Pennsylvania","42013","Blair","40.4488","-78.3839","456","607.5","shape","FALSE","FALSE","America/New_York","3","16648","1840101444"
"Totah Vista","Totah Vista","NM","New Mexico","35045","San Juan","36.7113","-108.2035","456","307.6","shape","FALSE","FALSE","America/Denver","3","87401","1840143888"
"Martinsville","Martinsville","OH","Ohio","39027","Clinton","39.3227","-83.8116","456","449.9","shape","FALSE","TRUE","America/New_York","3","45146","1840012621"
"Tolchester","Tolchester","MD","Maryland","24029","Kent","39.2219","-76.2349","456","288.5","shape","FALSE","FALSE","America/New_York","3","21620","1840031441"
"Towner","Towner","ND","North Dakota","38049","McHenry","48.3471","-100.4070","456","212.9","shape","FALSE","TRUE","America/Chicago","3","58788","1840001876"
"Rolette","Rolette","ND","North Dakota","38079","Rolette","48.6609","-99.8417","456","174.7","shape","FALSE","TRUE","America/Chicago","3","58366","1840001850"
"Crescent Valley","Crescent Valley","NV","Nevada","32011","Eureka","40.4198","-116.5753","456","79.0","shape","FALSE","FALSE","America/Los_Angeles","3","89821","1840024243"
"Lockridge","Lockridge","IA","Iowa","19101","Jefferson","40.9936","-91.7507","456","282.0","shape","FALSE","TRUE","America/Chicago","3","52635","1840009332"
"Hiltonia","Hiltonia","GA","Georgia","13251","Screven","32.8833","-81.6613","456","102.3","shape","FALSE","TRUE","America/New_York","3","30467","1840016921"
"Garfield","Garfield","AR","Arkansas","05007","Benton","36.4555","-93.9757","456","57.0","shape","FALSE","TRUE","America/Chicago","3","72732","1840016074"
"Kennedyville","Kennedyville","MD","Maryland","24029","Kent","39.3032","-75.9949","456","344.5","shape","FALSE","FALSE","America/New_York","3","21645","1840024477"
"Cherry Grove","Cherry Grove","WA","Washington","53011","Clark","45.8022","-122.5767","456","75.7","shape","FALSE","FALSE","America/Los_Angeles","3","98604","1840037538"
"Esmont","Esmont","VA","Virginia","51003","Albemarle","37.8284","-78.5959","456","48.4","shape","FALSE","FALSE","America/New_York","3","22937","1840026774"
"Tuluksak","Tuluksak","AK","Alaska","02050","Bethel","61.1050","-160.9493","456","60.2","shape","FALSE","FALSE","America/Anchorage","3","99679","1840023348"
"Flat Rock","Flat Rock","IL","Illinois","17033","Crawford","38.9037","-87.6734","455","205.2","shape","FALSE","TRUE","America/Chicago","3","62427","1840012754"
"Wilmot","Wilmot","AR","Arkansas","05003","Ashley","33.0588","-91.5749","455","99.3","shape","FALSE","TRUE","America/Chicago","3","71676","1840015731"
"Selma","Selma","VA","Virginia","51005","Alleghany","37.8041","-79.8495","455","404.2","shape","FALSE","FALSE","America/New_York","3","24474","1840006364"
"Vintondale","Vintondale","PA","Pennsylvania","42021","Cambria","40.4794","-78.9112","455","373.9","shape","FALSE","TRUE","America/New_York","3","15961","1840001127"
"Packwood","Packwood","IA","Iowa","19101","Jefferson","41.1327","-92.0825","455","234.6","shape","FALSE","TRUE","America/Chicago","3","52580","1840009334"
"Madison","Madison","CA","California","06113","Yolo","38.6750","-121.9702","455","113.6","shape","FALSE","FALSE","America/Los_Angeles","3","95627 95653","1840024602"
"Berthold","Berthold","ND","North Dakota","38101","Ward","48.3170","-101.7478","455","148.3","shape","FALSE","TRUE","America/Chicago","3","58718","1840001866"
"Tampico","Tampico","WA","Washington","53077","Yakima","46.5332","-120.8742","455","42.5","shape","FALSE","FALSE","America/Los_Angeles","3","98903","1840023857"
"Wardell","Wardell","MO","Missouri","29155","Pemiscot","36.3539","-89.8170","455","121.1","shape","FALSE","TRUE","America/Chicago","3","63879","1840010904"
"Banquete","Banquete","TX","Texas","48355","Nueces","27.8007","-97.7972","455","74.8","shape","FALSE","FALSE","America/Chicago","3","78339 78380","1840026055"
"Hot Springs","Hot Springs","VA","Virginia","51017","Bath","38.0013","-79.8239","455","31.5","shape","FALSE","FALSE","America/New_York","3","24445","1840026779"
"Lewis","Lewis","IA","Iowa","19029","Cass","41.3064","-95.0842","455","347.5","shape","FALSE","TRUE","America/Chicago","3","51544","1840008236"
"Thornburg","Thornburg","PA","Pennsylvania","42003","Allegheny","40.4346","-80.0841","454","400.6","shape","FALSE","TRUE","America/New_York","3","15205","1840001266"
"Dodd City","Dodd City","TX","Texas","48147","Fannin","33.5757","-96.0755","454","99.1","shape","FALSE","TRUE","America/Chicago","3","75438","1840021974"
"Springdale","Springdale","UT","Utah","49053","Washington","37.1816","-113.0049","454","38.1","shape","FALSE","TRUE","America/Denver","3","84767","1840022559"
"Bethune","Bethune","SC","South Carolina","45055","Kershaw","34.4143","-80.3487","454","159.0","shape","FALSE","TRUE","America/New_York","3","29009","1840015553"
"Hamilton Branch","Hamilton Branch","CA","California","06063","Plumas","40.2772","-121.0961","454","161.5","shape","FALSE","FALSE","America/Los_Angeles","3","96137","1840017520"
"Sulphur Springs","Sulphur Springs","IN","Indiana","18065","Henry","39.9991","-85.4392","454","249.3","shape","FALSE","TRUE","America/Indiana/Indianapolis","3","47388 47356","1840010536"
"Leon","Leon","KS","Kansas","20015","Butler","37.6898","-96.7837","454","242.7","shape","FALSE","TRUE","America/Chicago","3","67074","1840008683"
"Horntown","Horntown","VA","Virginia","51001","Accomack","37.9655","-75.4560","453","33.2","shape","FALSE","FALSE","America/New_York","3","23395","1840024730"
"Gould","Gould","AR","Arkansas","05079","Lincoln","33.9872","-91.5641","453","112.8","shape","FALSE","TRUE","America/Chicago","3","71643","1840013664"
"Mullen","Mullen","NE","Nebraska","31091","Hooker","42.0427","-101.0446","453","423.7","shape","FALSE","TRUE","America/Denver","3","69152","1840011359"
"Dean","Dean","TX","Texas","48077","Clay","33.9299","-98.3676","453","82.1","shape","FALSE","TRUE","America/Chicago","3","76305","1840019284"
"Oak Level","Oak Level","VA","Virginia","51089","Henry","36.7944","-79.9391","453","28.8","shape","FALSE","FALSE","America/New_York","3","24055","1840006554"
"Soudersburg","Soudersburg","PA","Pennsylvania","42071","Lancaster","40.0150","-76.1529","453","153.4","shape","FALSE","FALSE","America/New_York","3","17572 17529","1840035200"
"Reddick","Reddick","FL","Florida","12083","Marion","29.3687","-82.1976","453","138.8","shape","FALSE","TRUE","America/New_York","3","32686","1840018275"
"West Waynesburg","West Waynesburg","PA","Pennsylvania","42059","Greene","39.9000","-80.2007","453","160.2","shape","FALSE","FALSE","America/New_York","3","15370","1840026592"
"Kimmell","Kimmell","IN","Indiana","18113","Noble","41.3949","-85.5487","453","182.3","shape","FALSE","FALSE","America/Indiana/Indianapolis","3","46760 46767","1840026314"
"Lisman","Lisman","AL","Alabama","01023","Choctaw","32.1792","-88.3002","453","67.6","shape","FALSE","TRUE","America/Chicago","3","36912","1840017015"
"St. Ann Highlands","St. Ann Highlands","CO","Colorado","08013","Boulder","39.9873","-105.4559","452","125.5","shape","FALSE","FALSE","America/Denver","3","80466","1840028527"
"Chelyan","Chelyan","WV","West Virginia","54039","Kanawha","38.1958","-81.4928","452","408.6","shape","FALSE","FALSE","America/New_York","3","25035","1840025659"
"Ipava","Ipava","IL","Illinois","17057","Fulton","40.3526","-90.3235","452","394.2","shape","FALSE","TRUE","America/Chicago","3","61441","1840012009"
"Urbana","Urbana","MO","Missouri","29059","Dallas","37.8436","-93.1676","452","181.3","shape","FALSE","TRUE","America/Chicago","3","65767","1840010851"
"Churchtown","Churchtown","PA","Pennsylvania","42071","Lancaster","40.1350","-75.9593","452","92.6","shape","FALSE","FALSE","America/New_York","3","17555 17519","1840024331"
"Tees Toh","Tees Toh","AZ","Arizona","04017","Navajo","35.4849","-110.3989","452","10.3","shape","FALSE","FALSE","America/Denver","3","86047","1840022585"
"Villa Pancho","Villa Pancho","TX","Texas","48061","Cameron","25.8844","-97.4157","452","375.6","shape","FALSE","FALSE","America/Chicago","3","78521","1840037084"
"Shakertowne","Shakertowne","MO","Missouri","29157","Perry","37.6940","-89.8674","452","132.2","shape","FALSE","FALSE","America/Chicago","3","63775","1840146390"
"Bentley","Bentley","KS","Kansas","20173","Sedgwick","37.8868","-97.5147","452","584.2","shape","FALSE","TRUE","America/Chicago","3","67016","1840007567"
"Quonochontaug","Quonochontaug","RI","Rhode Island","44009","Washington","41.3447","-71.7059","452","129.9","shape","FALSE","FALSE","America/New_York","3","02813","1840026291"
"Thompsonville","Thompsonville","MI","Michigan","26019","Benzie","44.5205","-85.9388","452","175.3","shape","FALSE","TRUE","America/Detroit","3","49683","1840010935"
"Copeland","Copeland","KS","Kansas","20069","Gray","37.5405","-100.6288","452","303.2","shape","FALSE","TRUE","America/Chicago","3","67837","1840007559"
"Lewisville","Lewisville","ID","Idaho","16051","Jefferson","43.6951","-112.0131","451","262.3","shape","FALSE","TRUE","America/Boise","3","83431","1840020019"
"Parkton","Parkton","NC","North Carolina","37155","Robeson","34.9028","-79.0113","451","223.3","shape","FALSE","TRUE","America/New_York","3","28371","1840016540"
"Zayante","Zayante","CA","California","06087","Santa Cruz","37.0892","-122.0409","451","61.7","shape","FALSE","FALSE","America/Los_Angeles","3","95018","1840024798"
"New Augusta","New Augusta","MS","Mississippi","28111","Perry","31.2036","-89.0272","451","33.9","shape","FALSE","TRUE","America/Chicago","3","39462","1840017107"
"Raft Island","Raft Island","WA","Washington","53053","Pierce","47.3290","-122.6687","451","716.2","shape","FALSE","TRUE","America/Los_Angeles","3","98335","1840042039"
"Gates","Gates","OR","Oregon","41047","Marion","44.7561","-122.4201","451","269.8","shape","FALSE","TRUE","America/Los_Angeles","3","97346","1840019959"
"Dutton","Dutton","AL","Alabama","01071","Jackson","34.6062","-85.9119","451","201.5","shape","FALSE","TRUE","America/Chicago","3","35744","1840016525"
"Millers Lake","Millers Lake","MI","Michigan","26087","Lapeer","43.1800","-83.3257","451","115.4","shape","FALSE","FALSE","America/Detroit","3","48421","1840147522"
"Wilson","Wilson","TX","Texas","48305","Lynn","33.3192","-101.7274","451","269.6","shape","FALSE","TRUE","America/Chicago","3","79381","1840022028"
"Indian Field","Indian Field","CT","Connecticut","09190","Western Connecticut","41.0218","-73.6071","451","194.1","shape","FALSE","FALSE","America/New_York","3","06830","1840151400"
"Fawn Grove","Fawn Grove","PA","Pennsylvania","42133","York","39.7312","-76.4521","450","105.6","shape","FALSE","TRUE","America/New_York","3","17321","1840001444"
"Williams Creek","Williams Creek","IN","Indiana","18097","Marion","39.9001","-86.1502","450","540.3","shape","FALSE","TRUE","America/Indiana/Indianapolis","3","46240","1840010576"
"Cook","Cook","NE","Nebraska","31097","Johnson","40.5105","-96.1619","450","448.5","shape","FALSE","TRUE","America/Chicago","3","68329","1840012167"
"Harrington","Harrington","WA","Washington","53043","Lincoln","47.4803","-118.2554","450","445.3","shape","FALSE","TRUE","America/Los_Angeles","3","99134","1840019819"
"Blaine","Blaine","OH","Ohio","39013","Belmont","40.0688","-80.8095","450","245.6","shape","FALSE","FALSE","America/New_York","3","43912 43909","1840094059"
"Carter Springs","Carter Springs","NV","Nevada","32005","Douglas","38.8619","-119.6413","450","62.1","shape","FALSE","TRUE","America/Los_Angeles","4","89410","1840039791"
"Delmar","Delmar","IA","Iowa","19045","Clinton","41.9989","-90.6080","450","227.4","shape","FALSE","TRUE","America/Chicago","3","52037","1840007043"
"Plainview","Plainview","AR","Arkansas","05149","Yell","34.9899","-93.2980","450","119.2","shape","FALSE","TRUE","America/Chicago","3","72857","1840014609"
"Avon","Avon","AL","Alabama","01069","Houston","31.1797","-85.2790","450","73.5","shape","FALSE","TRUE","America/Chicago","3","36312","1840015881"
"Big Piney","Big Piney","WY","Wyoming","56035","Sublette","42.5401","-110.1193","450","342.1","shape","FALSE","TRUE","America/Denver","3","83113","1840020061"
"Prichard","Prichard","WV","West Virginia","54099","Wayne","38.2362","-82.6028","450","156.9","shape","FALSE","FALSE","America/New_York","3","25555","1840025675"
"Wapanucka","Wapanucka","OK","Oklahoma","40069","Johnston","34.3736","-96.4255","450","267.3","shape","FALSE","TRUE","America/Chicago","3","73461","1840022850"
"Latham","Latham","IL","Illinois","17107","Logan","39.9669","-89.1623","450","267.7","shape","FALSE","TRUE","America/Chicago","3","62543","1840012307"
"Tununak","Tununak","AK","Alaska","02050","Bethel","60.5790","-165.2077","450","2.9","shape","FALSE","FALSE","America/Nome","3","99681","1840023350"
"Equality","Equality","IL","Illinois","17059","Gallatin","37.7371","-88.3422","450","198.0","shape","FALSE","TRUE","America/Chicago","3","62934","1840012969"
"Heidlersburg","Heidlersburg","PA","Pennsylvania","42001","Adams","39.9471","-77.1496","450","248.6","shape","FALSE","FALSE","America/New_York","3","17372 17325","1840026580"
"Higgins","Higgins","TX","Texas","48295","Lipscomb","36.1210","-100.0274","449","156.3","shape","FALSE","TRUE","America/Chicago","3","79046","1840020381"
"Colt","Colt","AR","Arkansas","05123","St. Francis","35.1329","-90.8129","449","137.8","shape","FALSE","TRUE","America/Chicago","3","72326","1840014619"
"Laurel Run","Laurel Run","PA","Pennsylvania","42079","Luzerne","41.2195","-75.8446","449","34.0","shape","FALSE","TRUE","America/New_York","3","18706","1840000759"
"Branson West","Branson West","MO","Missouri","29209","Stone","36.7023","-93.3779","449","36.7","shape","FALSE","TRUE","America/Chicago","3","65737","1840007652"
"Trinidad","Trinidad","CA","California","06023","Humboldt","41.0589","-124.1434","449","355.3","shape","FALSE","TRUE","America/Los_Angeles","3","95570","1840010444"
"Senecaville","Senecaville","OH","Ohio","39059","Guernsey","39.9348","-81.4595","449","365.0","shape","FALSE","TRUE","America/New_York","3","43780","1840012360"
"Mapleton","Mapleton","OR","Oregon","41039","Lane","44.0325","-123.8609","449","192.8","shape","FALSE","FALSE","America/Los_Angeles","3","97453","1840034784"
"Bradenville","Bradenville","PA","Pennsylvania","42129","Westmoreland","40.3236","-79.3403","449","423.7","shape","FALSE","FALSE","America/New_York","3","15620","1840026429"
"St. Cloud","St. Cloud","WI","Wisconsin","55039","Fond du Lac","43.8245","-88.1687","449","188.3","shape","FALSE","TRUE","America/Chicago","3","53079","1840002611"
"San Pablo","San Pablo","NM","New Mexico","35013","Do√±a Ana","32.2507","-106.7626","449","142.5","shape","FALSE","FALSE","America/Denver","3","88005","1840025090"
"New Hampshire","New Hampshire","OH","Ohio","39011","Auglaize","40.5540","-83.9531","449","284.1","shape","FALSE","FALSE","America/New_York","3","45870 45895","1840026427"
"Clifton","Clifton","KS","Kansas","20201","Washington","39.5682","-97.2808","448","423.5","shape","FALSE","TRUE","America/Chicago","3","66937","1840007284"
"Rayland","Rayland","OH","Ohio","39081","Jefferson","40.1842","-80.6911","448","366.0","shape","FALSE","TRUE","America/New_York","3","43943","1840012122"
"Tuppers Plains","Tuppers Plains","OH","Ohio","39105","Meigs","39.1726","-81.8466","448","95.3","shape","FALSE","FALSE","America/New_York","3","45783 45723 45772","1840026674"
"Newfolden","Newfolden","MN","Minnesota","27089","Marshall","48.3568","-96.3297","448","170.3","shape","FALSE","TRUE","America/Chicago","3","56738","1840007696"
"Sherwood","Sherwood","MI","Michigan","26023","Branch","41.9997","-85.2394","448","172.4","shape","FALSE","TRUE","America/Detroit","3","49089","1840011376"
"Farnhamville","Farnhamville","IA","Iowa","19025","Calhoun","42.2767","-94.4078","448","262.6","shape","FALSE","TRUE","America/Chicago","3","50538","1840008072"
"Alma","Alma","MO","Missouri","29107","Lafayette","39.0964","-93.5478","448","454.0","shape","FALSE","TRUE","America/Chicago","3","64001","1840007387"
"Lucas","Lucas","KS","Kansas","20167","Russell","39.0587","-98.5378","448","284.3","shape","FALSE","TRUE","America/Chicago","3","67648","1840009705"
"Hazel","Hazel","KY","Kentucky","21035","Calloway","36.5055","-88.3253","448","254.1","shape","FALSE","TRUE","America/Chicago","3","42049","1840014411"
"Rudolph","Rudolph","WI","Wisconsin","55141","Wood","44.4972","-89.8018","448","143.7","shape","FALSE","TRUE","America/Chicago","3","54475","1840002341"
"Deercroft","Deercroft","NC","North Carolina","37165","Scotland","34.9592","-79.4352","448","133.9","shape","FALSE","TRUE","America/New_York","4","28396","1840043056"
"Windsor Place","Windsor Place","MO","Missouri","29053","Cooper","38.9342","-92.7029","448","192.9","shape","FALSE","TRUE","America/Chicago","3","65233","1840012766"
"Kimberton","Kimberton","PA","Pennsylvania","42029","Chester","40.1306","-75.5743","448","362.1","shape","FALSE","FALSE","America/New_York","3","19460 19442","1840035044"
"Cushman","Cushman","AR","Arkansas","05063","Independence","35.8658","-91.7782","447","42.3","shape","FALSE","TRUE","America/Chicago","3","72501 72526","1840014510"
"Holiday Pocono","Holiday Pocono","PA","Pennsylvania","42025","Carbon","41.0292","-75.6092","447","73.6","shape","FALSE","FALSE","America/New_York","3","18210","1840035385"
"Dustin","Dustin","OK","Oklahoma","40063","Hughes","35.2714","-96.0281","447","266.9","shape","FALSE","TRUE","America/Chicago","3","74839","1840021817"
"Green Camp","Green Camp","OH","Ohio","39101","Marion","40.5322","-83.2077","447","135.9","shape","FALSE","TRUE","America/New_York","3","43322 43302","1840012026"
"Indian Point","Indian Point","MO","Missouri","29209","Stone","36.6428","-93.3444","447","61.7","shape","FALSE","TRUE","America/Chicago","3","65616","1840013051"
"North Springfield","North Springfield","VT","Vermont","50027","Windsor","43.3304","-72.5277","447","140.2","shape","FALSE","FALSE","America/New_York","3","05150 05156","1840025408"
"Chinook","Chinook","WA","Washington","53049","Pacific","46.2755","-123.9425","447","171.4","shape","FALSE","FALSE","America/Los_Angeles","3","98614","1840017374"
"Goshen","Goshen","AL","Alabama","01109","Pike","31.7182","-86.1242","447","67.4","shape","FALSE","TRUE","America/Chicago","4","36035","1840003403"
"Dunn Center","Dunn Center","ND","North Dakota","38025","Dunn","47.3527","-102.6233","447","441.5","shape","FALSE","TRUE","America/Denver","3","58626","1840000125"
"Gilberton","Gilberton","PA","Pennsylvania","42107","Schuylkill","40.7961","-76.2235","447","121.6","shape","FALSE","TRUE","America/New_York","3","17949 17931 17934","1840002759"
"Empire","Empire","CO","Colorado","08019","Clear Creek","39.7595","-105.6825","447","263.2","shape","FALSE","TRUE","America/Denver","3","80438","1840021432"
"Adams Run","Adams Run","SC","South Carolina","45019","Charleston","32.7219","-80.3465","447","121.8","shape","FALSE","FALSE","America/New_York","3","29426 29449","1840106249"
"Bruni","Bruni","TX","Texas","48479","Webb","27.4282","-98.8322","447","131.3","shape","FALSE","FALSE","America/Chicago","3","78344","1840018291"
"Nineveh","Nineveh","IN","Indiana","18081","Johnson","39.3612","-86.0927","446","217.0","shape","FALSE","TRUE","America/Indiana/Indianapolis","3","46164","1840001121"
"Melvin","Melvin","IL","Illinois","17053","Ford","40.5709","-88.2471","446","421.6","shape","FALSE","TRUE","America/Chicago","3","60952","1840011878"
"Salix","Salix","IA","Iowa","19193","Woodbury","42.3158","-96.3035","446","101.4","shape","FALSE","TRUE","America/Chicago","3","51052","1840009110"
"Clarkedale","Clarkedale","AR","Arkansas","05035","Crittenden","35.2971","-90.2103","446","15.1","shape","FALSE","TRUE","America/Chicago","3","72325 72384 72364","1840014583"
"Phelps","Phelps","KY","Kentucky","21195","Pike","37.5090","-82.1605","446","21.5","shape","FALSE","FALSE","America/New_York","3","41553","1840013228"
"Benson","Benson","IL","Illinois","17203","Woodford","40.8505","-89.1211","446","450.1","shape","FALSE","TRUE","America/Chicago","3","61516","1840011939"
"Orland","Orland","IN","Indiana","18151","Steuben","41.7305","-85.1722","446","251.1","shape","FALSE","TRUE","America/Detroit","3","46776","1840009250"
"McGregor","McGregor","MN","Minnesota","27001","Aitkin","46.6087","-93.3055","446","80.5","shape","FALSE","TRUE","America/Chicago","3","55760","1840007733"
"Mappsville","Mappsville","VA","Virginia","51001","Accomack","37.8435","-75.5686","445","218.3","shape","FALSE","FALSE","America/New_York","3","23407 23359 23308","1840024734"
"Arlington","Arlington","IA","Iowa","19065","Fayette","42.7488","-91.6710","445","171.2","shape","FALSE","TRUE","America/Chicago","3","50606","1840006888"
"Portage","Portage","OH","Ohio","39173","Wood","41.3232","-83.6468","445","115.5","shape","FALSE","TRUE","America/New_York","3","43451","1840011555"
"Ojo Encino","Ojo Encino","NM","New Mexico","35031","McKinley","35.9525","-107.3445","445","263.6","shape","FALSE","FALSE","America/Denver","3","87013","1840145459"
"Converse","Converse","LA","Louisiana","22085","Sabine","31.7795","-93.7001","445","78.8","shape","FALSE","TRUE","America/Chicago","3","71419","1840018157"
"Rome","Rome","PA","Pennsylvania","42015","Bradford","41.8574","-76.3415","445","331.2","shape","FALSE","TRUE","America/New_York","3","18837","1840000516"
"Lenzburg","Lenzburg","IL","Illinois","17163","St. Clair","38.2860","-89.8180","445","148.8","shape","FALSE","TRUE","America/Chicago","3","62255","1840012866"
"Sturgeon Lake","Sturgeon Lake","MN","Minnesota","27115","Pine","46.3863","-92.8242","445","45.6","shape","FALSE","TRUE","America/Chicago","3","55783","1840008855"
"Lower Elochoman","Lower Elochoman","WA","Washington","53069","Wahkiakum","46.2184","-123.3697","445","113.7","shape","FALSE","TRUE","America/Los_Angeles","4","98612","1840041981"
"Cowiche","Cowiche","WA","Washington","53077","Yakima","46.6719","-120.7120","445","207.0","shape","FALSE","FALSE","America/Los_Angeles","3","98923","1840023852"
"Bliss","Bliss","NY","New York","36121","Wyoming","42.5801","-78.2538","445","17.5","shape","FALSE","FALSE","America/New_York","3","14024","1840025470"
"Saint George","Saint George","VT","Vermont","50007","Chittenden","44.3770","-73.1300","445","191.8","shape","FALSE","FALSE","America/New_York","3","05495","1840152382"
"Caledonia","Caledonia","OH","Ohio","39101","Marion","40.6364","-82.9695","444","774.1","shape","FALSE","TRUE","America/New_York","3","43314","1840010389"
"Westwood Hills","Westwood Hills","KS","Kansas","20091","Johnson","39.0389","-94.6097","444","1595.2","shape","FALSE","TRUE","America/Chicago","3","66205","1840030286"
"Mount Aetna","Mount Aetna","MD","Maryland","24043","Washington","39.5989","-77.6127","444","121.3","shape","FALSE","FALSE","America/New_York","3","21742 21740","1840005600"
"Almond","Almond","WI","Wisconsin","55097","Portage","44.2607","-89.4087","444","163.6","shape","FALSE","TRUE","America/Chicago","3","54909","1840002323"
"Greenville","Greenville","MO","Missouri","29223","Wayne","37.1284","-90.4472","444","254.1","shape","FALSE","TRUE","America/Chicago","3","63944","1840008776"
"Dublin","Dublin","NC","North Carolina","37017","Bladen","34.6562","-78.7231","444","393.9","shape","FALSE","TRUE","America/New_York","3","28332","1840016562"
"Plumas Eureka","Plumas Eureka","CA","California","06063","Plumas","39.7982","-120.6645","444","43.1","shape","FALSE","FALSE","America/Los_Angeles","3","96103","1840028419"
"East Nassau","East Nassau","NY","New York","36083","Rensselaer","42.5330","-73.5085","444","35.3","shape","FALSE","TRUE","America/New_York","3","12123 12062","1840004441"
"Sutersville","Sutersville","PA","Pennsylvania","42129","Westmoreland","40.2361","-79.8017","444","595.9","shape","FALSE","TRUE","America/New_York","3","15083","1840001162"
"Galva","Galva","IA","Iowa","19093","Ida","42.5057","-95.4180","444","227.3","shape","FALSE","TRUE","America/Chicago","3","51020","1840008071"
"Barton Hills","Barton Hills","MI","Michigan","26161","Washtenaw","42.3167","-83.7561","444","225.8","shape","FALSE","TRUE","America/Detroit","3","48105","1840011192"
"Highland Lake","Highland Lake","AL","Alabama","01009","Blount","33.8876","-86.4244","444","105.1","shape","FALSE","TRUE","America/Chicago","3","35121","1840015602"
"Custer Park","Custer Park","IL","Illinois","17197","Will","41.2436","-88.1292","444","243.0","shape","FALSE","FALSE","America/Chicago","3","60481","1840148759"
"Allen","Allen","NE","Nebraska","31051","Dixon","42.4144","-96.8431","444","381.5","shape","FALSE","TRUE","America/Chicago","3","68710","1840010093"
"Pine Harbor","Pine Harbor","TX","Texas","48315","Marion","32.7716","-94.4992","444","51.5","shape","FALSE","TRUE","America/Chicago","4","75657","1840042627"
"Pine Springs","Pine Springs","MN","Minnesota","27163","Washington","45.0368","-92.9543","443","222.1","shape","FALSE","TRUE","America/Chicago","3","55128 55115","1840008915"
"Lime Springs","Lime Springs","IA","Iowa","19089","Howard","43.4499","-92.2841","443","168.5","shape","FALSE","TRUE","America/Chicago","3","52155","1840009036"
"Westcliffe","Westcliffe","CO","Colorado","08027","Custer","38.1339","-105.4654","443","138.5","shape","FALSE","TRUE","America/Denver","3","81252","1840022525"
"Coalport","Coalport","PA","Pennsylvania","42033","Clearfield","40.7476","-78.5320","443","219.9","shape","FALSE","TRUE","America/New_York","3","16627","1840003491"
"Sea Ranch Lakes","Sea Ranch Lakes","FL","Florida","12011","Broward","26.2007","-80.0981","443","2749.9","shape","FALSE","TRUE","America/New_York","2","33308","1840018329"
"Carroll","Carroll","OH","Ohio","39045","Fairfield","39.8025","-82.7062","443","271.8","shape","FALSE","TRUE","America/New_York","3","43112","1840010571"
"Wellington","Wellington","KY","Kentucky","21111","Jefferson","38.2167","-85.6703","443","1926.0","shape","FALSE","TRUE","America/New_York","3","40205","1840015199"
"Chrisney","Chrisney","IN","Indiana","18147","Spencer","38.0097","-87.0316","443","242.3","shape","FALSE","TRUE","America/Chicago","3","47611","1840009757"
"Bakersfield","Bakersfield","VT","Vermont","50011","Franklin","44.7821","-72.8032","443","164.4","shape","FALSE","FALSE","America/New_York","3","05448 05441","1840152962"
"Big Lake","Big Lake","IN","Indiana","18113","Noble","41.2742","-85.4993","442","295.0","shape","FALSE","TRUE","America/Indiana/Indianapolis","3","46725 46701","1840001259"
"Trenton","Trenton","NE","Nebraska","31087","Hitchcock","40.1747","-101.0136","442","293.0","shape","FALSE","TRUE","America/Chicago","3","69044","1840012298"
"Thayer","Thayer","KS","Kansas","20133","Neosho","37.4851","-95.4845","442","313.1","shape","FALSE","TRUE","America/Chicago","3","66776","1840009886"
"Ellsinore","Ellsinore","MO","Missouri","29035","Carter","36.9328","-90.7477","442","337.5","shape","FALSE","TRUE","America/Chicago","3","63937","1840008786"
"Talmo","Talmo","GA","Georgia","13157","Jackson","34.1831","-83.7210","442","55.8","shape","FALSE","TRUE","America/New_York","3","30567 30575","1840016714"
"Lewistown","Lewistown","MO","Missouri","29111","Lewis","40.0848","-91.8136","442","340.8","shape","FALSE","TRUE","America/Chicago","3","63452","1840009458"
"Coram","Coram","MT","Montana","30029","Flathead","48.4306","-114.0444","442","46.0","shape","FALSE","FALSE","America/Denver","3","59913","1840017295"
"Concord","Concord","GA","Georgia","13231","Pike","33.0917","-84.4387","442","202.8","shape","FALSE","TRUE","America/New_York","3","30206","1840014853"
"Plainville","Plainville","IN","Indiana","18027","Daviess","38.8048","-87.1515","442","424.9","shape","FALSE","TRUE","America/Indiana/Vincennes","3","47568","1840010733"
"Nordheim","Nordheim","TX","Texas","48123","DeWitt","28.9239","-97.6141","442","343.1","shape","FALSE","TRUE","America/Chicago","3","78141","1840020983"
"Mohrsville","Mohrsville","PA","Pennsylvania","42011","Berks","40.4781","-75.9851","442","262.0","shape","FALSE","FALSE","America/New_York","3","19541","1840026450"
"Clearfield","Clearfield","IA","Iowa","19173","Taylor","40.8028","-94.4836","442","143.5","shape","FALSE","TRUE","America/Chicago","3","50840","1840007186"
"Ewing","Ewing","MO","Missouri","29111","Lewis","40.0088","-91.7147","442","273.4","shape","FALSE","TRUE","America/Chicago","3","63440","1840008383"
"Montreat","Montreat","NC","North Carolina","37021","Buncombe","35.6478","-82.3001","442","62.6","shape","FALSE","TRUE","America/New_York","3","28757","1840016283"
"Davis","Davis","IL","Illinois","17177","Stephenson","42.4215","-89.4156","442","417.2","shape","FALSE","TRUE","America/Chicago","3","61019","1840011113"
"Collins","Collins","OH","Ohio","39077","Huron","41.2508","-82.4915","442","37.0","shape","FALSE","FALSE","America/New_York","3","44826","1840026343"
"Wyano","Wyano","PA","Pennsylvania","42129","Westmoreland","40.2015","-79.6939","442","144.8","shape","FALSE","FALSE","America/New_York","3","15089 15695 15679","1840026440"
"Beallsville","Beallsville","PA","Pennsylvania","42125","Washington","40.0619","-80.0302","442","70.3","shape","FALSE","TRUE","America/New_York","3","15313 15333","1840003639"
"Roscoe","Roscoe","NY","New York","36105","Sullivan","41.9399","-74.9123","442","175.1","shape","FALSE","FALSE","America/New_York","3","12776","1840004785"
"Dillon Beach","Dillon Beach","CA","California","06041","Marin","38.2436","-122.9562","442","57.2","shape","FALSE","FALSE","America/Los_Angeles","3","94929 94971","1840018883"
"Lewisburg","Lewisburg","LA","Louisiana","22103","St. Tammany","30.3659","-90.1052","442","339.5","shape","FALSE","FALSE","America/Chicago","3","70448","1840031127"
"Topawa","Topawa","AZ","Arizona","04019","Pima","31.8078","-111.8305","441","33.1","shape","FALSE","FALSE","America/Phoenix","3","85639","1840023079"
"Kadoka","Kadoka","SD","South Dakota","46071","Jackson","43.8325","-101.5081","441","74.5","shape","FALSE","TRUE","America/Denver","3","57543","1840002587"
"Enoree","Enoree","SC","South Carolina","45083","Spartanburg","34.6593","-81.9609","441","109.9","shape","FALSE","FALSE","America/New_York","3","29335","1840026959"
"Pantego","Pantego","NC","North Carolina","37013","Beaufort","35.5874","-76.6594","441","212.1","shape","FALSE","TRUE","America/New_York","3","27860","1840016304"
"Dover","Dover","NC","North Carolina","37049","Craven","35.2155","-77.4338","441","177.5","shape","FALSE","TRUE","America/New_York","3","28526","1840016400"
"Centralia","Centralia","KS","Kansas","20131","Nemaha","39.7243","-96.1301","441","375.4","shape","FALSE","TRUE","America/Chicago","3","66415","1840007297"
"New Era","New Era","MI","Michigan","26127","Oceana","43.5595","-86.3477","441","203.0","shape","FALSE","TRUE","America/Detroit","3","49446","1840010957"
"Draper","Draper","VA","Virginia","51155","Pulaski","37.0012","-80.7372","441","78.8","shape","FALSE","FALSE","America/New_York","3","24324","1840024801"
"Erskine","Erskine","MN","Minnesota","27119","Polk","47.6651","-96.0139","440","263.3","shape","FALSE","TRUE","America/Chicago","3","56535","1840007701"
"Eolia","Eolia","MO","Missouri","29163","Pike","39.2388","-91.0120","440","139.4","shape","FALSE","TRUE","America/Chicago","3","63344","1840012602"
"Tira","Tira","TX","Texas","48223","Hopkins","33.3222","-95.5606","440","119.8","shape","FALSE","TRUE","America/Chicago","4","75482","1840023247"
"Wesley","Wesley","AR","Arkansas","05087","Madison","36.0290","-93.9165","440","124.1","shape","FALSE","FALSE","America/Chicago","3","72773","1840001736"
"Kila","Kila","MT","Montana","30029","Flathead","48.1216","-114.4768","440","42.7","shape","FALSE","FALSE","America/Denver","3","59920","1840023738"
"Platea","Platea","PA","Pennsylvania","42049","Erie","41.9510","-80.3304","440","50.8","shape","FALSE","TRUE","America/New_York","3","16417 16410","1840000484"
"Roxobel","Roxobel","NC","North Carolina","37015","Bertie","36.2015","-77.2398","440","162.9","shape","FALSE","TRUE","America/New_York","3","27872","1840017738"
"Wellsburg","Wellsburg","NY","New York","36015","Chemung","42.0126","-76.7298","440","299.0","shape","FALSE","TRUE","America/New_York","3","14894","1840004691"
"Lester","Lester","WV","West Virginia","54081","Raleigh","37.7349","-81.3014","440","338.9","shape","FALSE","TRUE","America/New_York","3","25865","1840006351"
"Union Deposit","Union Deposit","PA","Pennsylvania","42043","Dauphin","40.2911","-76.6812","440","216.1","shape","FALSE","FALSE","America/New_York","3","17033","1840035399"
"Pinehurst","Pinehurst","GA","Georgia","13093","Dooly","32.1956","-83.7596","440","167.0","shape","FALSE","TRUE","America/New_York","3","31070","1840014909"
"Groom","Groom","TX","Texas","48065","Carson","35.2050","-101.1071","440","228.3","shape","FALSE","TRUE","America/Chicago","3","79039","1840021756"
"Bridge Creek","Bridge Creek","OK","Oklahoma","40051","Grady","35.2382","-97.7320","440","108.0","shape","FALSE","TRUE","America/Chicago","3","73010 73089","1840021801"
"Forest Hills","Forest Hills","KY","Kentucky","21111","Jefferson","38.2158","-85.5834","440","996.5","shape","FALSE","TRUE","America/New_York","3","40299 40220","1840013202"
"Middleway","Middleway","WV","West Virginia","54037","Jefferson","39.3032","-77.9810","440","151.5","shape","FALSE","FALSE","America/New_York","3","25430","1840025609"
"White Eagle","White Eagle","OK","Oklahoma","40071","Kay","36.6268","-97.0812","440","28.9","shape","FALSE","FALSE","America/Chicago","3","74601","1840097241"
"Olivia Lopez de Gutierrez","Olivia Lopez de Gutierrez","TX","Texas","48427","Starr","26.3276","-98.7167","440","444.4","shape","FALSE","TRUE","America/Chicago","3","78582","1840041320"
"Karnak","Karnak","IL","Illinois","17153","Pulaski","37.2942","-88.9758","439","93.8","shape","FALSE","TRUE","America/Chicago","3","62956","1840013023"
"Breda","Breda","IA","Iowa","19027","Carroll","42.1840","-94.9750","439","229.2","shape","FALSE","TRUE","America/Chicago","3","51436","1840004701"
"Tazlina","Tazlina","AK","Alaska","02066","Copper River","62.0536","-145.4363","439","20.6","shape","FALSE","FALSE","America/Anchorage","3","99588 99573","1840023588"
"Cornell","Cornell","IL","Illinois","17105","Livingston","40.9920","-88.7299","439","259.1","shape","FALSE","TRUE","America/Chicago","3","61319","1840011781"
"Sheldon","Sheldon","SC","South Carolina","45013","Beaufort","32.5985","-80.7961","439","37.4","shape","FALSE","FALSE","America/New_York","3","29940","1840035748"
"Titonka","Titonka","IA","Iowa","19109","Kossuth","43.2372","-94.0413","439","295.1","shape","FALSE","TRUE","America/Chicago","3","50480","1840010054"
"Shipman","Shipman","VA","Virginia","51125","Nelson","37.7272","-78.8424","439","63.1","shape","FALSE","FALSE","America/New_York","3","22971","1840024716"
"East Fork","East Fork","AZ","Arizona","04017","Navajo","33.8082","-109.9227","439","82.2","shape","FALSE","FALSE","America/Phoenix","3","85941","1840018961"
"Brady","Brady","NE","Nebraska","31111","Lincoln","41.0223","-100.3676","439","310.6","shape","FALSE","TRUE","America/Chicago","3","69123","1840011648"
"Minocqua","Minocqua","WI","Wisconsin","55085","Oneida","45.8795","-89.7037","439","234.4","shape","FALSE","FALSE","America/Chicago","3","54548","1840025293"
"Grant Town","Grant Town","WV","West Virginia","54049","Marion","39.5590","-80.1771","439","321.6","shape","FALSE","TRUE","America/New_York","3","26574","1840005731"
"Lewis","Lewis","KS","Kansas","20047","Edwards","37.9370","-99.2547","439","464.6","shape","FALSE","TRUE","America/Chicago","3","67552","1840008685"
"Cecilia","Cecilia","KY","Kentucky","21093","Hardin","37.6622","-85.9522","439","118.4","shape","FALSE","FALSE","America/New_York","3","42724","1840026798"
"Buford","Buford","OH","Ohio","39071","Highland","39.0720","-83.8393","439","114.3","shape","FALSE","FALSE","America/New_York","3","45154 45171","1840026663"
"Lake Poinsett","Lake Poinsett","SD","South Dakota","46057","Hamlin","44.5664","-97.0798","438","34.6","shape","FALSE","TRUE","America/Chicago","4","57234 57212","1840040570"
"Bowie","Bowie","AZ","Arizona","04003","Cochise","32.3247","-109.4843","438","99.1","shape","FALSE","FALSE","America/Phoenix","3","85605","1840023084"
"Leeds","Leeds","ND","North Dakota","38005","Benson","48.2878","-99.4346","438","267.3","shape","FALSE","TRUE","America/Chicago","3","58346","1840000090"
"Rawlings","Rawlings","MD","Maryland","24001","Allegany","39.5403","-78.8858","438","189.4","shape","FALSE","FALSE","America/New_York","3","21557","1840024434"
"Stringtown","Stringtown","OK","Oklahoma","40005","Atoka","34.4701","-96.0549","438","31.4","shape","FALSE","TRUE","America/Chicago","3","74569 74525","1840022832"
"Varna","Varna","IL","Illinois","17123","Marshall","41.0353","-89.2244","438","344.7","shape","FALSE","TRUE","America/Chicago","3","61375","1840011774"
"Roachester","Roachester","OH","Ohio","39165","Warren","39.3538","-84.0988","438","129.2","shape","FALSE","FALSE","America/New_York","3","45152","1840093427"
"Nenahnezad","Nenahnezad","NM","New Mexico","35045","San Juan","36.7354","-108.4252","438","48.2","shape","FALSE","FALSE","America/Denver","3","87416","1840033725"
"Bazine","Bazine","KS","Kansas","20135","Ness","38.4462","-99.6930","438","376.3","shape","FALSE","TRUE","America/Chicago","3","67516","1840007479"
"Charleston","Charleston","UT","Utah","49051","Wasatch","40.4661","-111.4600","438","59.0","shape","FALSE","TRUE","America/Denver","3","84032 84082","1840022414"
"Blanchard","Blanchard","ID","Idaho","16017","Bonner","48.0152","-116.9928","438","113.9","shape","FALSE","FALSE","America/Los_Angeles","3","83804","1840023760"
"Santa Clara","Santa Clara","PR","Puerto Rico","72007","Aguas Buenas","18.2110","-66.1320","438","1076.5","shape","FALSE","FALSE","America/Puerto_Rico","3","00703","1630023675"
"Rush Valley","Rush Valley","UT","Utah","49045","Tooele","40.3613","-112.4506","437","9.3","shape","FALSE","TRUE","America/Denver","3","84069","1840021358"
"Lone Wolf","Lone Wolf","OK","Oklahoma","40075","Kiowa","34.9904","-99.2456","437","324.4","shape","FALSE","TRUE","America/Chicago","3","73655","1840021827"
"South Mountain","South Mountain","TX","Texas","48099","Coryell","31.4398","-97.6793","437","104.6","shape","FALSE","TRUE","America/Chicago","3","76528","1840023122"
"Fair Bluff","Fair Bluff","NC","North Carolina","37047","Columbus","34.3126","-79.0333","437","71.5","shape","FALSE","TRUE","America/New_York","3","28439","1840016664"
"Fulton","Fulton","AL","Alabama","01025","Clarke","31.7916","-87.7396","437","68.8","shape","FALSE","TRUE","America/Chicago","4","36446 36451","1840002425"
"Phenix","Phenix","VA","Virginia","51037","Charlotte","37.0811","-78.7485","437","146.3","shape","FALSE","TRUE","America/New_York","3","23959","1840006467"
"Canal Point","Canal Point","FL","Florida","12099","Palm Beach","26.8626","-80.6222","437","121.2","shape","FALSE","FALSE","America/New_York","3","33438","1840014202"
"Carbon Hill","Carbon Hill","IL","Illinois","17063","Grundy","41.2970","-88.2999","437","415.1","shape","FALSE","TRUE","America/Chicago","3","60416","1840010269"
"Ruffin","Ruffin","NC","North Carolina","37157","Rockingham","36.4428","-79.5433","437","37.1","shape","FALSE","FALSE","America/New_York","3","27326","1840025767"
"Floodwood","Floodwood","MN","Minnesota","27137","St. Louis","46.9175","-92.9186","437","97.4","shape","FALSE","TRUE","America/Chicago","3","55736","1840007688"
"Leaf River","Leaf River","IL","Illinois","17141","Ogle","42.1233","-89.4040","437","194.2","shape","FALSE","TRUE","America/Chicago","3","61047","1840011232"
"Springboro","Springboro","PA","Pennsylvania","42039","Crawford","41.8006","-80.3717","437","199.2","shape","FALSE","TRUE","America/New_York","3","16435","1840000561"
"Rosser","Rosser","TX","Texas","48257","Kaufman","32.4648","-96.4431","437","88.3","shape","FALSE","TRUE","America/Chicago","3","75157 75158","1840023039"
"Bon Air","Bon Air","TN","Tennessee","47185","White","35.9359","-85.3644","437","85.6","shape","FALSE","FALSE","America/Chicago","3","38583","1840036115"
"Urbanna","Urbanna","VA","Virginia","51119","Middlesex","37.6395","-76.5747","437","398.7","shape","FALSE","TRUE","America/New_York","3","23175","1840003850"
"Linville","Linville","NC","North Carolina","37011","Avery","36.0674","-81.8715","437","94.5","shape","FALSE","FALSE","America/New_York","3","28646","1840032959"
"Centertown","Centertown","KY","Kentucky","21183","Ohio","37.4177","-86.9959","436","254.8","shape","FALSE","TRUE","America/Chicago","3","42328","1840014349"
"Harts","Harts","WV","West Virginia","54043","Lincoln","38.0343","-82.1290","436","18.3","shape","FALSE","FALSE","America/New_York","3","25524","1840006270"
"Bigelow","Bigelow","AR","Arkansas","05105","Perry","34.9975","-92.6315","436","179.6","shape","FALSE","TRUE","America/Chicago","3","72016","1840015499"
"Bokoshe","Bokoshe","OK","Oklahoma","40079","Le Flore","35.1904","-94.7903","436","307.8","shape","FALSE","TRUE","America/Chicago","3","74930","1840021793"
"Wilkinson","Wilkinson","IN","Indiana","18059","Hancock","39.8857","-85.6086","436","389.1","shape","FALSE","TRUE","America/Indiana/Indianapolis","3","46186","1840010569"
"San Pierre","San Pierre","IN","Indiana","18149","Starke","41.1989","-86.8921","436","281.6","shape","FALSE","FALSE","America/Indiana/Knox","3","46374","1840004909"
"Elmore","Elmore","MN","Minnesota","27043","Faribault","43.5063","-94.0883","436","198.9","shape","FALSE","TRUE","America/Chicago","3","56027","1840007945"
"Melfa","Melfa","VA","Virginia","51001","Accomack","37.6489","-75.7407","436","280.2","shape","FALSE","TRUE","America/New_York","3","23410","1840006325"
"Cunningham","Cunningham","KS","Kansas","20095","Kingman","37.6447","-98.4312","436","367.9","shape","FALSE","TRUE","America/Chicago","3","67035","1840007585"
"Keams Canyon","Keams Canyon","AZ","Arizona","04017","Navajo","35.8229","-110.2011","436","10.1","shape","FALSE","FALSE","America/Phoenix","3","86034","1840017659"
"Snow Lake","Snow Lake","IN","Indiana","18151","Steuben","41.7302","-85.0327","435","281.5","shape","FALSE","TRUE","America/Detroit","3","46737","1840001913"
"Calumet","Calumet","OK","Oklahoma","40017","Canadian","35.6014","-98.1248","435","132.9","shape","FALSE","TRUE","America/Chicago","3","73014","1840022731"
"Matthews","Matthews","IN","Indiana","18053","Grant","40.3874","-85.4980","435","453.3","shape","FALSE","TRUE","America/Indiana/Indianapolis","3","46928 46957","1840009409"
"Newcomb","Newcomb","NM","New Mexico","35045","San Juan","36.2852","-108.7116","435","17.4","shape","FALSE","FALSE","America/Denver","3","87455","1840018991"
"Ona","Ona","FL","Florida","12049","Hardee","27.4830","-81.9097","435","6.3","shape","FALSE","FALSE","America/New_York","3","33873 33865","1840025170"
"Brookford","Brookford","NC","North Carolina","37035","Catawba","35.7030","-81.3452","435","275.6","shape","FALSE","TRUE","America/New_York","3","28602","1840015390"
"Barnegat Light","Barnegat Light","NJ","New Jersey","34029","Ocean","39.7530","-74.1095","435","202.2","shape","FALSE","TRUE","America/New_York","3","08006","1840003755"
"Carrollton","Carrollton","MS","Mississippi","28015","Carroll","33.5056","-89.9218","435","206.6","shape","FALSE","TRUE","America/Chicago","3","38917","1840016834"
"Linn","Linn","KS","Kansas","20201","Washington","39.6793","-97.0869","435","484.1","shape","FALSE","TRUE","America/Chicago","3","66953","1840009504"
"Morgan Farm","Morgan Farm","TX","Texas","48409","San Patricio","28.0055","-97.5535","434","50.0","shape","FALSE","FALSE","America/Chicago","3","78387","1840037133"
"Isleta Comunidad","Isleta Comunidad","PR","Puerto Rico","72099","Moca","18.3767","-67.1123","434","835.9","shape","FALSE","FALSE","America/Puerto_Rico","3","00676","1630126410"
"Jeffersonville","Jeffersonville","NY","New York","36105","Sullivan","41.7799","-74.9298","434","410.3","shape","FALSE","TRUE","America/New_York","3","12748","1840004789"
"Andover","Andover","IL","Illinois","17073","Henry","41.2949","-90.2907","434","169.2","shape","FALSE","TRUE","America/Chicago","3","61233 61238 61262","1840010246"
"Bucklin","Bucklin","MO","Missouri","29115","Linn","39.7837","-92.8879","434","141.8","shape","FALSE","TRUE","America/Chicago","3","64631","1840007273"
"Weissport","Weissport","PA","Pennsylvania","42025","Carbon","40.8289","-75.7010","434","1462.2","shape","FALSE","TRUE","America/New_York","3","18235","1840000936"
"Trivoli","Trivoli","IL","Illinois","17143","Peoria","40.6975","-89.8891","434","110.1","shape","FALSE","FALSE","America/Chicago","3","61569","1840051696"
"Meadow Valley","Meadow Valley","CA","California","06063","Plumas","39.9323","-121.0830","434","19.7","shape","FALSE","FALSE","America/Los_Angeles","3","95956","1840018765"
"Scales Mound","Scales Mound","IL","Illinois","17085","Jo Daviess","42.4750","-90.2525","434","266.7","shape","FALSE","TRUE","America/Chicago","3","61075","1840011108"
"Camak","Camak","GA","Georgia","13301","Warren","33.4526","-82.6462","434","211.5","shape","FALSE","TRUE","America/New_York","3","30807 30828","1840015709"
"Badger","Badger","MN","Minnesota","27135","Roseau","48.7768","-96.0213","434","125.5","shape","FALSE","TRUE","America/Chicago","3","56714","1840006585"
"Masontown","Masontown","WV","West Virginia","54077","Preston","39.5512","-79.8003","434","308.8","shape","FALSE","TRUE","America/New_York","3","26542","1840005655"
"Altamont","Altamont","UT","Utah","49013","Duchesne","40.3589","-110.2881","434","232.2","shape","FALSE","TRUE","America/Denver","3","84001","1840021392"
"Birchwood","Birchwood","WI","Wisconsin","55129","Washburn","45.6577","-91.5507","434","155.3","shape","FALSE","TRUE","America/Chicago","3","54817","1840002003"
"Coldiron","Coldiron","KY","Kentucky","21095","Harlan","36.8286","-83.4524","434","213.1","shape","FALSE","FALSE","America/New_York","3","40819","1840026896"
"Sardis","Sardis","TN","Tennessee","47077","Henderson","35.4424","-88.2913","434","67.0","shape","FALSE","TRUE","America/Chicago","3","38371","1840017791"
"Grandview","Grandview","IA","Iowa","19115","Louisa","41.2771","-91.1880","434","584.9","shape","FALSE","TRUE","America/Chicago","3","52752 52754","1840008246"
"Parmelee","Parmelee","SD","South Dakota","46121","Todd","43.3241","-101.0410","434","29.3","shape","FALSE","FALSE","America/Chicago","3","57566","1840004257"
"Ivanhoe","Ivanhoe","NC","North Carolina","37163","Sampson","34.5870","-78.2447","434","33.4","shape","FALSE","FALSE","America/New_York","3","28447","1840013481"
"Whittemore","Whittemore","MI","Michigan","26069","Iosco","44.2337","-83.8033","433","163.2","shape","FALSE","TRUE","America/Detroit","3","48770","1840000316"
"Weir","Weir","TX","Texas","48491","Williamson","30.6759","-97.5930","433","102.8","shape","FALSE","TRUE","America/Chicago","3","78626 78674","1840022167"
"Petersburg","Petersburg","NE","Nebraska","31011","Boone","41.8536","-98.0811","433","346.5","shape","FALSE","TRUE","America/Chicago","3","68652","1840011425"
